timestamp,gyro_rad[0],gyro_rad[1],gyro_rad[2],gyro_integral_dt,accelerometer_timestamp_relative,accelerometer_m_s2[0],accelerometer_m_s2[1],accelerometer_m_s2[2],accelerometer_integral_dt,accelerometer_clipping,gyro_clipping,accel_calibration_count,gyro_calibration_count
126712000,-0.004793689,-0.009321065,-0.0013315779,4000,0,0.090549044,0.135809,-9.96534,4000,0,0,1,1
126720000,0.0013315798,0.00053263275,0.00053263456,4000,0,0.012737498,0.26389882,-9.943791,4000,0,0,1,1
126724000,0.0023968443,0.0023968464,-0.0015978961,4000,0,0.060621534,0.20643795,-9.956962,4000,0,0,1,1
126728000,0.0042610583,0.0015978958,-0.0015978991,4000,0,0.047453415,0.17890461,-9.960552,4000,0,0,1,1
126736000,0.0005326319,-0.007456853,0.0010652577,4000,0,0.12765917,0.07355974,-9.9581585,4000,0,0,1,1
126740000,1.7021827e-09,-0.006657903,0.00026631486,4000,0,0.086957745,0.1525684,-9.96534,4000,0,0,1,1
126744000,-0.0005326328,-0.007723168,0.00053263095,4000,0,0.09294326,0.1812988,-9.978508,4000,0,0,1,1
126748000,-0.0007989516,-0.009321064,0.0018642124,4000,0,0.107308455,0.16573654,-9.994071,4000,0,0,1,1
126752000,-0.0010652677,-0.008255802,0.0026631602,4000,0,0.103717156,0.16094814,-9.989282,4000,0,0,1,1
126756000,-0.0002663181,-0.008522117,0.0034621116,4000,0,0.119279474,0.16214524,-9.995269,4000,0,0,1,1
126760000,0.00026631824,-0.007723167,0.0023968464,4000,0,0.13005337,0.16453944,-10.004846,4000,0,0,1,1
126764000,-0.000798947,-0.0061252723,0.001331578,4000,0,0.11209687,0.16453944,-10.000055,4000,0,0,1,1
126768000,-0.0013315796,-0.0074568526,0.0010652639,4000,0,0.09294326,0.16214524,-10.000055,4000,0,0,1,1
126776000,-0.0018642115,-0.007989485,-0.000532634,4000,0,0.07738095,0.16573654,-10.004846,4000,0,0,1,1
126780000,-0.0018642121,-0.0066579026,-0.00079894945,4000,0,0.059424426,0.15256837,-9.994071,4000,0,0,1,1
126784000,-0.0013315803,-0.0053263223,-0.00079894817,4000,0,0.073789634,0.14897709,-9.977312,4000,0,0,1,1
126788000,-1.48941e-09,-0.0055926396,2.38474e-09,4000,0,0.10491426,0.13461187,-9.984494,4000,0,0,1,1
126792000,0.0007989479,-0.0055926396,0.00026631757,4000,0,0.10970267,0.14179447,-9.992874,4000,0,0,1,1
126796000,-0.00026631626,-0.004527375,0.00026631434,4000,0,0.10730846,0.16693364,-9.982099,4000,0,0,1,1
126800000,-0.0010652648,-0.0026631611,0.00026631475,4000,0,0.09773165,0.16693364,-9.980901,4000,0,0,1,1
126804000,-0.0007989478,-0.0034621097,-0.00026631568,4000,0,0.084563546,0.16214524,-9.976115,4000,0,0,1,1
126808000,-0.00026631705,-0.006924219,0.00026631757,4000,0,0.085760646,0.16693364,-9.962945,4000,0,0,1,1
126812000,-2.3405016e-09,-0.008255801,0.0013315812,4000,0,0.09294326,0.17172202,-9.971325,4000,0,0,1,1
126816000,0.0002663135,-0.007190536,0.0021305298,4000,0,0.10850557,0.17770751,-9.992874,4000,0,0,1,1
126820000,0.0047936887,-0.0018642095,0.001331592,4000,0,0.049847618,0.24953353,-10.016815,4000,0,0,1,1
126824000,0.009321063,0.0029294828,-0.00079893786,4000,0,0.03428531,0.27227852,-10.003648,4000,0,0,1,1
126832000,0.0013315802,-0.0061252713,-1.1714848e-08,4000,0,0.15998091,0.09989597,-9.977312,4000,0,0,1,1
126836000,-0.0007989441,-0.007456851,-0.0021305343,4000,0,0.10491426,0.16932783,-9.995269,4000,0,0,1,1
126840000,-0.0015978961,-0.005592639,-0.0018642156,4000,0,0.089351945,0.16693364,-9.996466,4000,0,0,1,1
126844000,-0.001065266,-0.0031957934,-0.00026631646,4000,0,0.07259254,0.13940024,-10.012027,4000,0,0,1,1
126848000,-0.002130529,-0.0031957938,-0.0007989497,4000,0,0.070198335,0.12862639,-10.007238,4000,0,0,1,1
126852000,-0.0023968455,-0.0053263223,-0.00079894735,4000,0,0.084563546,0.14059737,-9.984494,4000,0,0,1,1
126856000,-0.000798949,-0.0071905362,-0.00079894427,4000,0,0.102520056,0.14658289,-9.972522,4000,0,0,1,1
126860000,5.248397e-09,-0.006657904,-0.0029294759,4000,0,0.101322964,0.1573568,-9.96534,4000,0,0,1,1
126864000,0.0015978984,-0.006391589,-0.0034621062,4000,0,0.09892875,0.1753133,-9.980902,4000,0,0,1,1
126868000,0.0026631574,-0.0069242213,-0.0018642112,4000,0,0.09533746,0.17052492,-10.014422,4000,0,0,1,1
126872000,-1.5130516e-09,-0.0063915867,-0.0010652705,4000,0,0.083366446,0.16334234,-10.022801,4000,0,0,1,1
126876000,-0.001597896,-0.005858955,-0.0013315843,4000,0,0.09653455,0.17172202,-10.016815,4000,0,0,1,1
126880000,-0.0010652645,-0.0053263227,-0.0013315801,4000,0,0.100125864,0.17172202,-10.007238,4000,0,0,1,1
126884000,-0.0026631604,-0.0047936896,-0.0018642162,4000,0,0.072592534,0.16334234,-9.984494,4000,0,0,1,1
126888000,-0.0045273746,-0.0055926386,-0.0023968476,4000,0,0.06780413,0.1549626,-9.979705,4000,0,0,1,1
126892000,-0.0037284284,-0.0066579026,-0.001597894,4000,0,0.085760646,0.1537655,-9.983296,4000,0,0,1,1
126896000,-0.001597898,-0.006391588,-0.0010652604,4000,0,0.083366446,0.15855393,-9.959354,4000,0,0,1,1
126900000,-0.0010652655,-0.0053263223,-0.0005326319,4000,0,0.058227323,0.16094814,-9.946186,4000,0,0,1,1
126904000,-0.0010652638,-0.0053263223,-0.0010652648,4000,0,0.05463602,0.1573568,-9.954567,4000,0,0,1,1
126908000,0.0013315807,-0.0063915886,-0.001331576,4000,0,0.071395434,0.13461187,-9.955763,4000,0,0,1,1
126912000,0.001331579,-0.007723168,-0.00079894916,4000,0,0.07857804,0.12264085,-9.97372,4000,0,0,1,1
126916000,-0.0007989458,-0.0082558,-0.0018642189,4000,0,0.06301573,0.12982352,-9.996466,4000,0,0,1,1
126920000,-0.0005326334,-0.007723167,-0.0013315803,4000,0,0.06301573,0.1334148,-9.980902,4000,0,0,1,1
126924000,-0.00026631565,-0.006657903,-0.0013315803,4000,0,0.09533746,0.13940027,-9.96534,4000,0,0,1,1
126928000,-0.0023968413,-0.005060005,-0.0026631663,4000,0,0.11568816,0.13461187,-9.974917,4000,0,0,1,1
126932000,-0.0050600083,-0.0037284219,-0.0005326379,4000,0,0.11209687,0.13461187,-9.973721,4000,0,0,1,1
126936000,-0.0034621123,-0.0034621065,0.0015978984,4000,0,0.09892875,0.1573568,-9.977312,4000,0,0,1,1
126940000,-0.0018642115,-0.003994743,0.00053263473,4000,0,0.103717156,0.16813073,-9.997662,4000,0,0,1,1
126944000,-0.0023968422,-0.0050600073,-0.0013315807,4000,0,0.100125864,0.17172202,-9.995269,4000,0,0,1,1
126952000,-0.00026631416,-0.004793691,-0.0034621088,4000,0,0.085760646,0.1824959,-9.968931,4000,0,0,1,1
126956000,-0.00026631792,-0.002663161,-0.0007989487,4000,0,0.102520056,0.18010171,-9.970129,4000,0,0,1,1
126960000,-1.7021828e-09,-0.003728426,0.00079894875,4000,0,0.11089977,0.17052492,-9.972522,4000,0,0,1,1
126964000,2.3168603e-09,-0.007456852,-0.0002663163,4000,0,0.11329397,0.1824959,-9.991675,4000,0,0,1,1
126968000,-0.00053263106,-0.00905475,-0.0007989499,4000,0,0.10970267,0.19207269,-9.996466,4000,0,0,1,1
126972000,-0.0015978984,-0.0085221175,-0.0002663196,4000,0,0.10850557,0.16932783,-9.988085,4000,0,0,1,1
126976000,-0.001864215,-0.007723168,0.00053263095,4000,0,0.101322964,0.16334234,-9.967735,4000,0,0,1,1
126980000,-0.0015979011,-0.0063915867,0.0021305291,4000,0,0.084563546,0.16094814,-9.9581585,4000,0,0,1,1
126988000,0.0002663203,-0.008788432,0.0023968497,4000,0,0.059424434,0.16813073,-9.985692,4000,0,0,1,1
126992000,0.0018642201,-0.00612527,-0.0007989436,4000,0,0.090549044,0.183693,-9.985692,4000,0,0,1,1
126996000,0.0007989539,-0.004261057,-0.0031957948,4000,0,0.10012586,0.1848901,-10.002451,4000,0,0,1,1
127004000,-0.0015979022,-0.007989484,-0.0015978968,4000,0,0.084563546,0.183693,-9.973721,4000,0,0,1,1
127008000,-0.0015979006,-0.008522117,-0.00026631603,4000,0,0.09294326,0.1753133,-9.979705,4000,0,0,1,1
127016000,-0.0010652646,-0.00479369,-0.00026631512,4000,0,0.04984761,0.12742929,-9.976115,4000,0,0,1,1
127024000,-0.0018642176,-0.007989485,0.003195791,4000,0,0.06660703,0.17291912,-9.998858,4000,0,0,1,1
127028000,-0.00026631783,-0.0063915853,0.003195797,4000,0,0.070198335,0.17770751,-10.008435,4000,0,0,1,1
127032000,0.0026631614,-0.003994739,0.001864219,4000,0,0.06780413,0.16094814,-9.988085,4000,0,0,1,1
127040000,0.0005326332,-0.0018642122,-0.0007989497,4000,0,0.09653455,0.15855393,-9.984494,4000,0,0,1,1
127048000,-0.0002663172,-0.005060006,-0.000266317,4000,0,0.101322964,0.1872843,-9.960552,4000,0,0,1,1
127052000,-0.0018642126,-0.0053263223,-0.00053263514,4000,0,0.103717156,0.17890461,-9.966538,4000,0,0,1,1
127056000,-0.0018642136,-0.0058589554,-0.00026631594,4000,0,0.08935194,0.1537655,-9.982099,4000,0,0,1,1
127064000,-0.0015978994,-0.007989485,0.0015978938,4000,0,0.09414036,0.1549626,-10.004846,4000,0,0,1,1
127068000,-0.0037284286,-0.007723168,0.002663155,4000,0,0.085760646,0.13580897,-10.001252,4000,0,0,1,1
127072000,-0.0023968457,-0.0061252704,0.0023968467,4000,0,0.090549044,0.12982349,-9.983296,4000,0,0,1,1
127080000,0.00079894724,-0.0029294775,0.001331582,4000,0,0.07498674,0.16094814,-9.977312,4000,0,0,1,1
127084000,0.00026631446,-0.0026631618,0.0029294773,4000,0,0.09174616,0.15855393,-9.976115,4000,0,0,1,1
127088000,-0.00026631344,-0.0037284265,0.001065264,4000,0,0.103717156,0.15975104,-10.004846,4000,0,0,1,1
127092000,2.3641427e-09,-0.00479369,-0.000532632,4000,0,0.086957745,0.1573568,-10.018012,4000,0,0,1,1
127096000,-0.0002663152,-0.004527375,-0.0010652653,4000,0,0.06301573,0.15256837,-9.989282,4000,0,0,1,1
127100000,-0.00053263153,-0.0058589554,-0.0018642134,4000,0,0.07019833,0.14299159,-9.9904785,4000,0,0,1,1
127104000,-0.0010652643,-0.0069242185,-0.0023968464,4000,0,0.101322964,0.16693364,-10.002451,4000,0,0,1,1
127108000,-0.0010652632,-0.0037284258,-0.0018642143,4000,0,0.11089977,0.20045246,-9.968931,4000,0,0,1,1
127112000,0.0045273774,0.0034621067,-0.00026631166,4000,0,0.05224183,0.24953353,-9.961748,4000,0,0,1,1
127120000,0.004261058,1.6641962e-09,-0.00053264137,4000,0,0.1683606,0.10707857,-9.985692,4000,0,0,1,1
127124000,-0.00079894916,-0.0037284258,-5.3607536e-09,4000,0,0.18990843,0.09391042,-9.979705,4000,0,0,1,1
127128000,-0.00053263357,-0.0037284258,0.0010652649,4000,0,0.12406788,0.16214524,-9.988085,4000,0,0,1,1
127136000,0.0031957978,-0.007723166,-0.0007989438,4000,0,0.090549044,0.14299159,-9.974917,4000,0,0,1,1
127144000,0.0031957936,-0.004527375,-0.0007989494,4000,0,0.11329397,0.13940027,-9.982099,4000,0,0,1,1
127148000,0.00053263234,-0.0029294773,-0.00053263473,4000,0,0.12167367,0.14538579,-9.982099,4000,0,0,1,1
127152000,0.0005326317,-0.0031957938,-1.0306e-10,4000,0,0.13484178,0.1513713,-9.979705,4000,0,0,1,1
127160000,1.8913159e-10,-0.004527375,0.0007989475,4000,0,0.09773165,0.13940027,-9.970129,4000,0,0,1,1
127164000,-0.0005326305,-0.0021305296,-0.00079894933,4000,0,0.073789634,0.12623219,-9.980902,4000,0,0,1,1
127168000,-0.0018642127,-0.0029294775,-0.0015978977,4000,0,0.053438917,0.14179447,-9.994071,4000,0,0,1,1
127172000,-0.0031957962,-0.0061252704,-0.0010652641,4000,0,0.07857804,0.16573654,-9.997662,4000,0,0,1,1
127176000,-0.0023968494,-0.0066579008,0.0007989505,4000,0,0.119279474,0.17172202,-10.000054,4000,0,0,1,1
127180000,-0.00053264096,-0.0029294745,0.00426106,4000,0,0.12406788,0.15855393,-9.988085,4000,0,0,1,1
127184000,-3.0497438e-09,-0.00133158,0.0050600064,4000,0,0.11329397,0.17172202,-9.971324,4000,0,0,1,1
127192000,2.9078957e-09,-0.00479369,-0.0007989489,4000,0,0.10970267,0.16813073,-9.991675,4000,0,0,1,1
127196000,-0.00026631987,-0.0058589554,0.0013315802,4000,0,0.13244757,0.14897709,-9.998858,4000,0,0,1,1
127200000,0.0005326286,-0.005858955,0.0031957955,4000,0,0.12406788,0.16693364,-9.998858,4000,0,0,1,1
127204000,3.64078e-09,-0.005858956,0.0013315796,4000,0,0.09533746,0.17411622,-9.983296,4000,0,0,1,1
127208000,-0.0023968418,-0.004793691,-0.00053263706,4000,0,0.09294326,0.15017422,-9.980901,4000,0,0,1,1
127216000,-0.0015978971,-0.006391588,-0.0005326281,4000,0,0.090549044,0.1346119,-9.979705,4000,0,0,1,1
127220000,0.0002663122,-0.006125271,0.0013315845,4000,0,0.10012586,0.14418869,-9.9581585,4000,0,0,1,1
127224000,-4.7519277e-09,-0.003994743,0.0031957934,4000,0,0.10970267,0.16813073,-9.936609,4000,0,0,1,1
127228000,-0.00053263333,-0.0013315812,0.0018642123,4000,0,0.09054904,0.1848901,-9.943791,4000,0,0,1,1
127232000,-0.00053263083,-0.0018642135,-0.0005326323,4000,0,0.07498674,0.17172202,-9.961747,4000,0,0,1,1
127236000,-0.0018642127,-0.004527375,-0.0018642135,4000,0,0.09054906,0.16573654,-9.967735,4000,0,0,1,1
127240000,-0.0015978994,-0.0050600055,-0.00053263165,4000,0,0.10730846,0.18010171,-9.979705,4000,0,0,1,1
127244000,-0.00026631757,-0.0053263223,0.00026631847,4000,0,0.11089977,0.1753133,-9.995269,4000,0,0,1,1
127248000,0.00026631996,-0.0053263223,-0.0018642122,4000,0,0.11089977,0.1537655,-10.014422,4000,0,0,1,1
127252000,-0.00053263083,-0.0045273746,-0.0023968467,4000,0,0.10730846,0.14299159,-10.021604,4000,0,0,1,1
127256000,-0.0005326343,-0.003994742,-0.00079894863,4000,0,0.118082374,0.14179447,-10.0060425,4000,0,0,1,1
127260000,0.0010652648,-0.00346211,-0.0007989465,4000,0,0.12885627,0.12503508,-9.984494,4000,0,0,1,1
127264000,0.0010652646,-0.0039947424,-0.0007989487,4000,0,0.12047657,0.10827567,-9.970129,4000,0,0,1,1
127268000,0.0013315794,-0.0050600064,-1.11955244e-10,4000,0,0.107308455,0.1334148,-9.977312,4000,0,0,1,1
127272000,0.0015978963,-0.00479369,0.0002663166,4000,0,0.086957745,0.16094814,-9.985692,4000,0,0,1,1
127280000,-0.00079894694,-0.004261059,-2.4857951e-09,4000,0,0.07378964,0.15256837,-10.014422,4000,0,0,1,1
127284000,-0.0026631607,-0.0039947424,-0.00053263514,4000,0,0.05583312,0.1549626,-10.033576,4000,0,0,1,1
127288000,-0.0018642165,-0.0061252695,0.0018642158,4000,0,0.06301573,0.17172202,-9.992873,4000,0,0,1,1
127296000,-0.00053263525,-0.005060006,0.0034621092,4000,0,0.06421282,0.15017422,-10.012027,4000,0,0,1,1
127300000,-0.0018642168,-0.0037284275,0.0047936877,4000,0,0.08097224,0.14059737,-10.008435,4000,0,0,1,1
127304000,-0.00292948,-0.001864215,0.0042610564,4000,0,0.09294326,0.1549626,-9.984494,4000,0,0,1,1
127308000,-0.0015978967,-0.001597896,0.0031957943,4000,0,0.09653455,0.15017422,-9.988085,4000,0,0,1,1
127312000,0.0005326349,-0.0026631607,0.0005326339,4000,0,0.107308455,0.1573568,-10.003648,4000,0,0,1,1
127316000,0.0023968471,-0.0037284254,-0.0013315794,4000,0,0.11089977,0.18010171,-10.001252,4000,0,0,1,1
127320000,0.0029294759,-0.0055926405,-0.0005326332,4000,0,0.09414036,0.1765104,-9.983296,4000,0,0,1,1
127324000,0.0021305275,-0.0071905362,0.00026631297,4000,0,0.08097224,0.17890461,-9.968931,4000,0,0,1,1
127328000,0.0005326316,-0.006391588,0.0005326289,4000,0,0.083366446,0.19326986,-9.96534,4000,0,0,1,1
127332000,-0.0010652659,-0.0053263227,0.0010652612,4000,0,0.089351945,0.17291912,-9.976115,4000,0,0,1,1
127336000,-0.0018642143,-0.0055926396,0.0018642115,4000,0,0.103717156,0.1561597,-9.983297,4000,0,0,1,1
127340000,-0.00079895055,-0.0053263213,0.0029294796,4000,0,0.107308455,0.1765104,-9.977312,4000,0,0,1,1
127344000,0.0007989458,-0.005060004,0.0042610615,4000,0,0.09533746,0.19087562,-9.988085,4000,0,0,1,1
127348000,0.0005326365,-0.0061252713,0.0026631607,4000,0,0.102520056,0.16693364,-9.998858,4000,0,0,1,1
127352000,7.612539e-09,-0.0061252713,-0.0010652657,4000,0,0.12047657,0.135809,-9.986889,4000,0,0,1,1
127356000,4.5391544e-09,-0.0055926396,-0.0031957938,4000,0,0.12646209,0.14299162,-9.985692,4000,0,0,1,1
127360000,-0.0010652656,-0.0061252704,-0.0029294798,4000,0,0.118082374,0.1537655,-9.983296,4000,0,0,1,1
127364000,-0.0023968488,-0.0050600036,-0.00079895166,4000,0,0.12526499,0.13341478,-9.978508,4000,0,0,1,1
127368000,-0.0010652647,-0.003195794,-0.0005326316,4000,0,0.1432215,0.12503508,-9.986889,4000,0,0,1,1
127376000,0.0005326304,-0.004527375,-0.0010652655,4000,0,0.09773165,0.16334234,-9.955763,4000,0,0,1,1
127380000,0.0005326298,-0.007190536,-5.9832705e-10,4000,0,0.09653455,0.16932783,-9.979705,4000,0,0,1,1
127384000,0.001864213,-0.005592639,3.37768e-09,4000,0,0.09294326,0.17172202,-9.982099,4000,0,0,1,1
127388000,0.0013315821,-0.003994742,-0.0007989485,4000,0,0.09892875,0.16932783,-9.960552,4000,0,0,1,1
127396000,-0.00079895003,-0.0061252713,-0.00079894747,4000,0,0.09533746,0.13461187,-10.020406,4000,0,0,1,1
127400000,0.0021305284,-0.0050600064,-0.00026631053,4000,0,0.072592534,0.11426115,-10.0060425,4000,0,0,1,1
127404000,0.0021305308,-0.0042610583,-0.0010652642,4000,0,0.05463602,0.11545825,-9.979705,4000,0,0,1,1
127408000,0.0005326331,-0.002929477,-0.001331582,4000,0,0.06780413,0.12982349,-9.982099,4000,0,0,1,1
127412000,-0.00079894986,-0.0042610583,-0.00053263386,4000,0,0.07618384,0.1346119,-9.989282,4000,0,0,1,1
127416000,-0.001331581,-0.006657903,-0.0005326326,4000,0,0.05463602,0.14299159,-10.000055,4000,0,0,1,1
127420000,0.00026631908,-0.006657904,-0.0018642095,4000,0,0.04505922,0.16573654,-9.992874,4000,0,0,1,1
127424000,0.0010652659,-0.0045273756,-0.0018642112,4000,0,0.07019833,0.1848901,-9.978508,4000,0,0,1,1
127432000,-0.00026631702,-0.0021305294,0.0013315803,4000,0,0.09414036,0.14658289,-9.962945,4000,0,0,1,1
127436000,7.8016704e-10,-0.0034621095,0.0010652649,4000,0,0.102520056,0.13461187,-9.960552,4000,0,0,1,1
127440000,0.00053263264,-0.0042610588,0.0010652652,4000,0,0.10970267,0.16932783,-9.977312,4000,0,0,1,1
127444000,0.00079895055,-0.006125271,-5.962321e-11,4000,0,0.11329397,0.17770751,-9.972522,4000,0,0,1,1
127448000,-0.00079894566,-0.0085221175,-0.0013315848,4000,0,0.10970267,0.1561597,-9.971325,4000,0,0,1,1
127456000,0.009054749,0.005592637,0.000798962,4000,0,-0.008810341,0.23636548,-9.988085,4000,0,0,1,1
127464000,3.5225727e-09,-0.0029294817,0.0023968401,4000,0,0.17554322,0.065180026,-9.967735,4000,0,0,1,1
127468000,-0.0002663145,-0.0026631614,0.000532632,4000,0,0.11568816,0.13461187,-9.942595,4000,0,0,1,1
127476000,0.00026631492,-0.007723168,-0.00053263275,4000,0,0.101322964,0.15137127,-9.962945,4000,0,0,1,1
127480000,-0.00026631705,-0.00905475,-0.00026631777,4000,0,0.12167367,0.14418869,-9.979705,4000,0,0,1,1
127488000,-0.0023968425,-0.005858956,-0.0007989524,4000,0,0.090549044,0.16214524,-9.96534,4000,0,0,1,1
127492000,-0.0026631586,-0.004793691,-0.0021305308,4000,0,0.09174616,0.1549626,-9.966538,4000,0,0,1,1
127496000,-0.0013315806,-0.0042610597,-0.0018642114,4000,0,0.10491426,0.14897709,-9.977312,4000,0,0,1,1
127500000,-0.0010652657,-0.00692422,-0.002130528,4000,0,0.11329397,0.15256837,-9.989282,4000,0,0,1,1
127504000,-0.0021305336,-0.009054749,-0.00079895026,4000,0,0.10970267,0.13102059,-9.976115,4000,0,0,1,1
127508000,-0.0021305354,-0.009054748,0.0013315805,4000,0,0.100125864,0.12742929,-9.972522,4000,0,0,1,1
127512000,-0.0010652622,-0.008788434,0.00053263514,4000,0,0.10491426,0.16094814,-9.998858,4000,0,0,1,1
127520000,-0.0005326322,-0.0061252713,-0.0002663165,4000,0,0.12885627,0.14658289,-9.991675,4000,0,0,1,1
127524000,-0.00079894846,-0.0061252713,-0.00026631678,4000,0,0.119279474,0.1370061,-9.973721,4000,0,0,1,1
127528000,-0.0026631644,-0.006125271,0.0013315767,4000,0,0.10611136,0.14658289,-9.955763,4000,0,0,1,1
127532000,-0.004527377,-0.0055926396,0.0021305247,4000,0,0.09533746,0.16693364,-9.967735,4000,0,0,1,1
127536000,-0.0029294759,-0.004793691,0.0007989501,4000,0,0.086957745,0.1824959,-9.973721,4000,0,0,1,1
127540000,-0.0005326329,-0.0053263213,0.001331585,4000,0,0.07618384,0.18848139,-9.982099,4000,0,0,1,1
127544000,0.0013315796,-0.007989484,0.002663165,4000,0,0.08216935,0.19805826,-10.0060425,4000,0,0,1,1
127552000,0.002396841,-0.0071905376,0.0037284244,4000,0,0.10850557,0.17291912,-10.0060425,4000,0,0,1,1
127556000,-0.001065263,-0.0063915914,0.0026631535,4000,0,0.12765917,0.17291912,-10.007238,4000,0,0,1,1
127560000,-0.002396841,-0.0055926405,0.0002663129,4000,0,0.11209687,0.18967849,-10.008435,4000,0,0,1,1
127568000,-0.0013315812,-0.0061252713,1.4534279e-09,4000,0,0.08935194,0.12264085,-9.998858,4000,0,0,1,1
127572000,-0.0013315802,-0.0063915877,-0.00026631617,4000,0,0.09294326,0.13341478,-9.985692,4000,0,0,1,1
127576000,-0.0015978962,-0.0058589554,-0.00053263316,4000,0,0.12287079,0.15855393,-9.956962,4000,0,0,1,1
127580000,-0.0013315808,-0.004527375,-0.00026631643,4000,0,0.12047658,0.1537655,-9.959354,4000,0,0,1,1
127584000,-0.00026631885,-0.002929477,0.0015978978,4000,0,0.073789634,0.1549626,-9.967735,4000,0,0,1,1
127588000,0.00053263083,-0.0031957934,0.0031957948,4000,0,0.06181863,0.1765104,-9.955763,4000,0,0,1,1
127596000,0.0015979013,-0.005060005,-0.0013315795,4000,0,0.05703022,0.1753133,-10.010829,4000,0,0,1,1
127600000,0.002130532,-0.0063915867,-0.0034621092,4000,0,0.06660703,0.16214524,-10.014422,4000,0,0,1,1
127604000,0.0015978949,-0.0074568517,-0.003195796,4000,0,0.083366446,0.17890461,-10.000054,4000,0,0,1,1
127608000,0.00026631422,-0.0061252704,-0.0018642157,4000,0,0.09892875,0.17411622,-9.989282,4000,0,0,1,1
127612000,-0.0018642128,-0.0047936887,-0.0015979011,4000,0,0.11449106,0.1561597,-9.968931,4000,0,0,1,1
127616000,-0.0026631632,-0.0047936887,-0.00026631754,4000,0,0.100125864,0.15137127,-9.960552,4000,0,0,1,1
127620000,-0.001864215,-0.004793689,0.0010652656,4000,0,0.07498673,0.16573654,-9.974917,4000,0,0,1,1
127624000,2.695123e-09,-0.003994743,-0.000798946,4000,0,0.06900123,0.17052492,-9.978508,4000,0,0,1,1
127628000,0.00053263525,-0.0034621097,-0.002929477,4000,0,0.088154845,0.14418872,-9.964144,4000,0,0,1,1
127632000,-0.00026631844,-0.0045273746,-0.0018642143,4000,0,0.10970267,0.1346119,-9.964144,4000,0,0,1,1
127636000,0.0010652604,-0.00559264,0.0005326343,4000,0,0.10611136,0.14777999,-9.979705,4000,0,0,1,1
127640000,0.0031957915,-0.005060006,0.0015979009,4000,0,0.085760646,0.14538579,-9.992873,4000,0,0,1,1
127648000,-0.0005326317,-0.005060007,0.001331577,4000,0,0.11329397,0.11904955,-9.984494,4000,0,0,1,1
127652000,0.0005326328,-0.005326322,0.0010652662,4000,0,0.12765917,0.12982349,-9.96534,4000,0,0,1,1
127656000,0.00026631576,-0.0069242185,0.0015978959,4000,0,0.100125864,0.14299159,-9.961747,4000,0,0,1,1
127664000,-0.0026631579,-0.0050600073,-0.0007989506,4000,0,0.11089977,0.1346119,-9.997662,4000,0,0,1,1
127668000,-0.0002663154,-0.0039947433,-0.0010652615,4000,0,0.12287079,0.1346119,-9.995269,4000,0,0,1,1
127672000,-0.00079894974,-0.0045273746,-0.00026631687,4000,0,0.13005337,0.1346119,-9.997662,4000,0,0,1,1
127676000,-0.0029294796,-0.006657902,0.0007989456,4000,0,0.12047657,0.14299159,-9.988085,4000,0,0,1,1
127680000,-0.0026631628,-0.007456851,0.0015978982,4000,0,0.09653455,0.16573654,-9.979705,4000,0,0,1,1
127684000,-0.0023968434,-0.0066579035,0.0007989482,4000,0,0.084563546,0.16453944,-9.988085,4000,0,0,1,1
127688000,-0.0015978933,-0.0071905367,-0.00079894636,4000,0,0.073789634,0.15137127,-10.008435,4000,0,0,1,1
127692000,-0.0015978933,-0.007723168,-0.002396845,4000,0,0.07857804,0.1561597,-10.008435,4000,0,0,1,1
127696000,-0.0023968443,-0.007723166,-0.0026631635,4000,0,0.10730846,0.15017422,-9.985692,4000,0,0,1,1
127700000,-0.0015979,-0.008255801,-0.0015978946,4000,0,0.11209687,0.1322177,-9.990478,4000,0,0,1,1
127704000,-0.0015978948,-0.0085221175,-0.002396845,4000,0,0.100125864,0.1346119,-10.016815,4000,0,0,1,1
127712000,0.0077231745,-0.0039947527,-0.0039947196,4000,0,0.016328797,0.22678867,-10.07667,4000,0,0,1,1
127720000,0.005592636,-0.0023968383,-0.0029294894,4000,0,0.17554323,0.09510752,-9.924638,4000,0,0,1,1
127724000,-0.0013315816,-0.0031957875,-0.0026631686,4000,0,0.18631712,0.085530736,-9.906681,4000,0,0,1,1
127728000,-0.0018642142,-0.001331579,-1.4180849e-09,4000,0,0.103717156,0.15975104,-9.985692,4000,0,0,1,1
127732000,-0.003728427,-0.003994741,0.0018642137,4000,0,0.09414036,0.14418869,-10.003648,4000,0,0,1,1
127736000,-0.0045273714,-0.0074568535,0.0010652676,4000,0,0.09773165,0.135809,-10.004846,4000,0,0,1,1
127744000,0.0010652663,-0.010120012,9.4217905e-09,4000,0,0.09653455,0.16214524,-9.966538,4000,0,0,1,1
127748000,0.0013315851,-0.0082558,-0.0013315793,4000,0,0.103717156,0.16334234,-9.955763,4000,0,0,1,1
127752000,0.00053263473,-0.006125271,-0.0018642143,4000,0,0.11568816,0.1824959,-9.946186,4000,0,0,1,1
127760000,0.00053263153,-0.0053263223,-0.00079894986,4000,0,0.12885627,0.1561597,-9.9581585,4000,0,0,1,1
127764000,1.4184866e-10,-0.00479369,-0.0007989494,4000,0,0.11089977,0.12742929,-9.955763,4000,0,0,1,1
127768000,0.0026631595,-0.007456853,4.1253103e-09,4000,0,0.085760646,0.14299159,-9.941399,4000,0,0,1,1
127772000,0.002663157,-0.00772317,0.0018642127,4000,0,0.06540993,0.16932783,-9.935412,4000,0,0,1,1
127776000,-0.0010652664,-0.0045273774,0.0018642062,4000,0,0.06900123,0.16334234,-9.956962,4000,0,0,1,1
127780000,-0.002663159,-0.0045273765,0.00026631367,4000,0,0.084563546,0.13700607,-9.985692,4000,0,0,1,1
127784000,-0.0010652624,-0.0063915886,-0.0010652607,4000,0,0.09773165,0.12503508,-9.97372,4000,0,0,1,1
127788000,-0.0005326316,-0.007723168,-0.0015978953,4000,0,0.103717156,0.1322177,-9.954566,4000,0,0,1,1
127796000,0.0005326329,-0.0055926405,-0.0018642097,4000,0,0.08216935,0.17052492,-9.988085,4000,0,0,1,1
127800000,0.0021305266,-0.0047936914,-0.0002663131,4000,0,0.07378964,0.16453944,-9.984494,4000,0,0,1,1
127808000,0.0005326322,-0.0026631611,0.00026631556,4000,0,0.07498674,0.13940027,-9.979705,4000,0,0,1,1
127816000,0.0026631607,-0.0034621095,0.0010652657,4000,0,0.10012586,0.1765104,-9.989282,4000,0,0,1,1
127820000,0.0026631614,-0.0034621092,0.0007989484,4000,0,0.119279474,0.16573654,-9.971324,4000,0,0,1,1
127824000,-1.6549001e-10,-0.0039947433,0.0010652608,4000,0,0.101322964,0.17052492,-9.962945,4000,0,0,1,1
127828000,-0.0018642157,-0.0053263227,0.0034621074,4000,0,0.09294326,0.16693364,-9.964144,4000,0,0,1,1
127832000,-0.0015978937,-0.006125272,0.0021305303,4000,0,0.102520056,0.15975104,-9.973721,4000,0,0,1,1
127836000,-0.0005326247,-0.0061252727,-0.0015978948,4000,0,0.09294326,0.16813073,-9.986889,4000,0,0,1,1
127840000,1.6785413e-09,-0.003994743,-0.0018642124,4000,0,0.07977514,0.17411622,-9.998858,4000,0,0,1,1
127848000,-0.004793691,-0.0063915867,-2.0974336e-09,4000,0,0.084563546,0.15256837,-9.97372,4000,0,0,1,1
127856000,-0.007723167,-0.0042610597,-0.0005326387,4000,0,0.073789634,0.1322177,-9.968931,4000,0,0,1,1
127864000,-0.0023968476,-0.0050600045,0.00026632368,4000,0,0.119279474,0.1370061,-9.986889,4000,0,0,1,1
127868000,-0.0005326347,-0.0042610574,0.0015978994,4000,0,0.07977514,0.135809,-10.001252,4000,0,0,1,1
127872000,-0.0005326322,-0.003728426,0.0013315803,4000,0,0.058227316,0.14418869,-9.998858,4000,0,0,1,1
127880000,0.0015978973,-0.0039947424,0.0031957934,4000,0,0.101322964,0.1322177,-9.960552,4000,0,0,1,1
127888000,-0.0026631595,-0.0058589564,0.00026631317,4000,0,0.09414036,0.12742929,-9.989282,4000,0,0,1,1
127892000,-0.0015978996,-0.0053263213,0.0015978984,4000,0,0.09533746,0.11665535,-9.974917,4000,0,0,1,1
127896000,-0.0029294768,-0.00692422,0.0015978952,4000,0,0.13125047,0.085530736,-10.015619,4000,0,0,1,1
127900000,-0.0021305238,-0.0063915895,-0.0007989473,4000,0,0.086957745,0.1573568,-10.079064,4000,0,0,1,1
127904000,0.0018642173,-0.00292948,-0.0023968392,4000,0,0.0318911,0.23157708,-10.038362,4000,0,0,1,1
127912000,-0.0031957994,-0.0071905344,0.0010652608,4000,0,0.13723597,0.12024664,-9.983296,4000,0,0,1,1
127916000,-0.00079895544,-0.0034621065,0.0034621113,4000,0,0.016328797,0.2627017,-9.988085,4000,0,0,1,1
127920000,0.001065263,-0.0021305273,0.0034621113,4000,0,0.058227316,0.20524085,-9.97372,4000,0,0,1,1
127924000,0.0023968485,-0.0039947405,0.0021305296,4000,0,0.08216935,0.1573568,-9.982099,4000,0,0,1,1
127928000,0.0015978971,-0.004793691,0.0023968434,4000,0,0.07738095,0.14299159,-9.983297,4000,0,0,1,1
127932000,-2.1277284e-09,-0.0021305308,0.0023968439,4000,0,0.088154845,0.1525684,-10.0060425,4000,0,0,1,1
127936000,-0.00026631763,-2.499576e-10,0.0021305291,4000,0,0.10730846,0.17411622,-10.001252,4000,0,0,1,1
127940000,-0.0010652613,-0.0045273756,0.0026631616,4000,0,0.1420244,0.1561597,-9.980902,4000,0,0,1,1
127944000,-0.003462101,-0.010918964,0.00079894694,4000,0,0.15519251,0.11785245,-9.964144,4000,0,0,1,1
127948000,0.0010652711,-0.006391589,-0.0013315696,4000,0,0.030693995,0.23516838,-10.019209,4000,0,0,1,1
127956000,0.0010652632,-0.003195797,0.0018642085,4000,0,0.14800988,0.06278582,-9.962945,4000,0,0,1,1
127964000,-0.0026631572,-0.0069242227,0.0029294721,4000,0,0.09414036,0.1561597,-9.956962,4000,0,0,1,1
127968000,0.0013315805,-0.0026631593,0.0010652702,4000,0,-0.0064161425,0.24953353,-9.992873,4000,0,0,1,1
127976000,-0.0047936863,-0.013049494,0.00053261034,4000,0,0.22941276,-0.03417936,-9.905484,4000,0,0,1,1
127980000,-0.0029294784,-0.010386328,0.00053263595,4000,0,0.06301573,0.1382032,-9.955763,4000,0,0,1,1
127988000,0.0058589554,-0.0010652631,0.0002663138,4000,0,0.09653455,0.14658289,-10.037166,4000,0,0,1,1
127992000,-0.001864212,-0.007723166,-0.0010652804,4000,0,0.23898955,-0.01622284,-9.895907,4000,0,0,1,1
127996000,-0.0013315782,-0.0045273756,-0.0015978976,4000,0,0.060621534,0.19446693,-9.924638,4000,0,0,1,1
128000000,0.0026631628,-1.872722e-09,-0.0010652607,4000,0,-0.0076132417,0.28305238,-9.983297,4000,0,0,1,1
128004000,0.0010652634,-0.0031957936,-0.00079895137,4000,0,0.13244757,0.11426115,-9.918654,4000,0,0,1,1
128008000,0.0005326322,-0.0047936896,-0.0010652657,4000,0,0.103717156,0.13221769,-9.974917,4000,0,0,1,1
128012000,-0.00053264917,-0.033023205,0.0031957866,4000,0,0.24138378,0.23875965,-8.588674,4000,0,0,1,1
128020000,-0.005326294,-0.04021375,0.0031957538,4000,0,0.04865051,-0.016222816,-11.458126,4000,0,0,1,1
128024000,-0.00079891825,-0.008255805,-0.0015978931,4000,0,-0.2494276,0.2615046,-11.347991,4000,0,0,1,1
128032000,-0.0010652676,-0.0085221175,-0.000532633,4000,0,0.09174616,0.16573654,-9.982099,4000,0,0,1,1
128036000,-0.0007989474,-0.006924219,-0.0007989484,4000,0,0.07857804,0.15256837,-9.970129,4000,0,0,1,1
128040000,-0.0013315782,-0.006657903,-0.0018642143,4000,0,0.073789634,0.1561597,-9.976115,4000,0,0,1,1
128044000,-0.0026631607,-0.004793689,-0.0015979006,4000,0,0.071395434,0.17052492,-9.989282,4000,0,0,1,1
128052000,-0.0034621102,-0.0034621092,-0.00053263025,4000,0,0.1396302,0.08074233,-10.022801,4000,0,0,1,1
128056000,-0.0037284263,-0.007723169,-0.0010652601,4000,0,0.1444186,0.07595392,-10.022801,4000,0,0,1,1
128064000,-0.002396841,-0.0034621104,-0.003195796,4000,0,0.012737498,0.20045246,-9.971325,4000,0,0,1,1
128072000,-0.0013315832,-0.0034621092,-0.00053263106,4000,0,0.088154845,0.13940027,-9.989282,4000,0,0,1,1
128080000,-0.0026631607,-0.0037284263,-0.0007989488,4000,0,0.05463602,0.12982349,-9.961747,4000,0,0,1,1
128084000,-0.0010652671,-0.0061252704,0.00079895236,4000,0,0.07977514,0.11306405,-9.943791,4000,0,0,1,1
128088000,0.0007989469,-0.008255801,0.0018642175,4000,0,0.11568816,0.12024664,-9.961748,4000,0,0,1,1
128092000,-0.0010652633,-0.006657904,0.0010652599,4000,0,0.12047658,0.14299159,-9.992874,4000,0,0,1,1
128096000,-0.0029294782,-0.0034621102,0.00079894305,4000,0,0.10491426,0.16214524,-9.997662,4000,0,0,1,1
128100000,-0.0021305294,-0.0037284258,0.0007989496,4000,0,0.10611136,0.16334234,-9.988085,4000,0,0,1,1
128108000,-0.0013315806,-0.00479369,-0.00026631547,4000,0,0.09892875,0.14299159,-9.962945,4000,0,0,1,1
128112000,-0.0005326352,-0.0034621092,0.0015978975,4000,0,0.101322964,0.14897709,-9.96534,4000,0,0,1,1
128116000,-0.0013315812,-0.0029294782,0.001864212,4000,0,0.101322964,0.14179447,-9.961747,4000,0,0,1,1
128120000,-0.002929476,-0.00426106,0.0010652634,4000,0,0.07738095,0.1382032,-9.962945,4000,0,0,1,1
128128000,-0.001331583,-0.0077231643,0.003195799,4000,0,0.09892875,0.14299159,-9.96534,4000,0,0,1,1
128136000,-0.002130526,-0.0037284282,0.0002663129,4000,0,0.09773165,0.19087559,-10.015619,4000,0,0,1,1
128140000,-0.0026631593,-0.0031957952,-0.001597898,4000,0,0.09653455,0.1765104,-10.007238,4000,0,0,1,1
128144000,-0.0023968464,-0.0042610583,-0.0010652634,4000,0,0.10012586,0.17411622,-9.996466,4000,0,0,1,1
128148000,-0.0018642137,-0.005060006,-0.0007989472,4000,0,0.084563546,0.16693364,-9.985692,4000,0,0,1,1
128152000,-0.0010652641,-0.002929478,-0.0007989485,4000,0,0.07259254,0.15376547,-9.972522,4000,0,0,1,1
128156000,0.00026631536,-0.0029294777,1.2491496e-09,4000,0,0.086957745,0.16932783,-9.984494,4000,0,0,1,1
128160000,-0.000798949,-0.0063915877,0.0005326308,4000,0,0.09892875,0.1765104,-9.998858,4000,0,0,1,1
128164000,-0.003195791,-0.007456853,-0.0005326373,4000,0,0.09653455,0.15975104,-9.983296,4000,0,0,1,1
128168000,-0.001864211,-0.007989487,-0.0013315768,4000,0,0.089351945,0.15137127,-9.971324,4000,0,0,1,1
128172000,0.00026631093,-0.0085221175,0.0005326381,4000,0,0.085760646,0.14777999,-9.970129,4000,0,0,1,1
128176000,-5.5320943e-09,-0.007190536,0.002396844,4000,0,0.09533746,0.14418869,-9.967735,4000,0,0,1,1
128180000,-0.00026631597,-0.0058589554,0.0018642122,4000,0,0.09892875,0.13940027,-9.96534,4000,0,0,1,1
128184000,-0.0007989462,-0.0045273756,0.00026631492,4000,0,0.083366446,0.1346119,-9.967735,4000,0,0,1,1
128188000,-0.001331579,-0.0050600064,-0.0007989493,4000,0,0.07498674,0.12742929,-9.979705,4000,0,0,1,1
128192000,-0.0007989477,-0.005858956,-0.0013315796,4000,0,0.08336645,0.12862639,-9.9904785,4000,0,0,1,1
128196000,-0.0010652643,-0.005060006,-0.0013315814,4000,0,0.09653455,0.16094814,-10.019209,4000,0,0,1,1
128204000,-0.00026632086,-0.0047936887,0.0029294793,4000,0,0.090549044,0.13221769,-9.985692,4000,0,0,1,1
128208000,0.00053263374,-0.0058589545,0.0026631625,4000,0,0.083366446,0.11785245,-9.966538,4000,0,0,1,1
128212000,6.9505797e-09,-0.006657903,-0.00053263357,4000,0,0.101322964,0.12742929,-9.980902,4000,0,0,1,1
128216000,4.7282928e-11,-0.0063915877,-0.00053263246,4000,0,0.11209687,0.12862642,-10.003648,4000,0,0,1,1
128224000,-0.00079894665,-0.0069242185,-0.001331584,4000,0,0.07857804,0.14299159,-9.970129,4000,0,0,1,1
128232000,-0.003728428,-0.0069242185,-7.356793e-11,4000,0,0.086957745,0.15017422,-10.000054,4000,0,0,1,1
128240000,-0.0007989521,-0.005592638,0.0026631628,4000,0,0.09892875,0.1573568,-9.984494,4000,0,0,1,1
128248000,-0.0010652627,-0.0029294782,-0.00079894933,4000,0,0.07378964,0.1334148,-9.977312,4000,0,0,1,1
128252000,-0.0023968457,-0.0047936896,-0.0005326329,4000,0,0.06540993,0.1513713,-10.001252,4000,0,0,1,1
128256000,-0.00213053,-0.006657903,-0.00026631434,4000,0,0.07618384,0.1561597,-9.998858,4000,0,0,1,1
128260000,-0.0010652628,-0.0074568526,-0.0010652617,4000,0,0.084563546,0.1370061,-9.9904785,4000,0,0,1,1
128268000,0.00026631608,-0.0053263223,-0.0010652638,4000,0,0.085760646,0.14059737,-10.007238,4000,0,0,1,1
128272000,0.00026631576,-0.0063915877,-0.0010652649,4000,0,0.09414036,0.13102059,-9.992873,4000,0,0,1,1
128276000,0.0002663139,-0.0063915877,-1.11554245e-10,4000,0,0.083366446,0.12264085,-9.991675,4000,0,0,1,1
128280000,-6.241337e-09,-0.0053263227,0.0029294773,4000,0,0.072592534,0.11785245,-9.983297,4000,0,0,1,1
128284000,-0.0013315813,-0.0061252727,0.0037284237,4000,0,0.07738095,0.12742929,-9.985692,4000,0,0,1,1
128288000,-0.001864208,-0.005326324,0.00079894694,4000,0,0.07618384,0.1525684,-9.972522,4000,0,0,1,1
128296000,-0.00079894916,-0.005326322,0.00053263345,4000,0,0.06780413,0.16573654,-9.983296,4000,0,0,1,1
128300000,-0.0005326307,-0.0058589554,-0.00026631562,4000,0,0.07857804,0.16094814,-10.004846,4000,0,0,1,1
128304000,-0.0005326338,-0.0055926396,0.00053263217,4000,0,0.088154845,0.1573568,-9.996466,4000,0,0,1,1
128308000,-0.0007989501,-0.004527375,0.00133158,4000,0,0.09653455,0.14179447,-9.995269,4000,0,0,1,1
128312000,-0.0010652657,-0.0034621095,0.0018642122,4000,0,0.09892875,0.12862642,-9.984494,4000,0,0,1,1
128316000,-0.0026631607,-0.004527376,0.0018642114,4000,0,0.085760646,0.13102062,-9.966538,4000,0,0,1,1
128320000,-0.0039947364,-0.0053263265,-0.0015978983,4000,0,0.07857804,0.12264085,-9.956962,4000,0,0,1,1
128324000,-0.0021305236,-0.0047936956,-0.004527372,4000,0,0.100125864,0.1382032,-9.966538,4000,0,0,1,1
128328000,-0.0013315801,-0.0031957943,-0.0034621092,4000,0,0.102520056,0.16094814,-9.979705,4000,0,0,1,1
128336000,-0.0029294787,-0.002929477,-0.0010652639,4000,0,0.07857804,0.14777999,-10.019209,4000,0,0,1,1
128340000,-0.0021305303,-0.00479369,-0.0007989459,4000,0,0.10730846,0.14658289,-10.002451,4000,0,0,1,1
128344000,-0.0010652654,-0.0055926396,-0.0005326302,4000,0,0.102520056,0.14777999,-9.966538,4000,0,0,1,1
128352000,-0.00026631565,-0.0034621095,-0.0002663164,4000,0,0.06900123,0.1561597,-10.009632,4000,0,0,1,1
128356000,-0.0007989484,-0.0026631611,-0.00026631687,4000,0,0.06900123,0.1525684,-9.997662,4000,0,0,1,1
128360000,-0.0015978987,-0.0037284256,0.0015978962,4000,0,0.07977514,0.15975104,-9.980902,4000,0,0,1,1
128364000,-0.0021305282,-0.0039947433,0.0007989478,4000,0,0.09294326,0.13940027,-9.989282,4000,0,0,1,1
128368000,0.00026631835,-0.004261059,-0.0007989451,4000,0,0.09414036,0.12623219,-9.996466,4000,0,0,1,1
128372000,0.0037284233,-0.0055926405,0.00079895306,4000,0,0.073789634,0.15017422,-10.000055,4000,0,0,1,1
128376000,0.003195792,-0.0055926405,0.0015978956,4000,0,0.046256315,0.16214524,-10.004846,4000,0,0,1,1
128380000,0.0007989501,-0.005060006,0.0005326282,4000,0,0.04865051,0.13461187,-10.003648,4000,0,0,1,1
128384000,0.0005326331,-0.00479369,-4.6192852e-10,4000,0,0.06780413,0.12503508,-9.992873,4000,0,0,1,1
128388000,0.0010652633,-0.0039947424,0.0007989494,4000,0,0.060621534,0.14778002,-9.991675,4000,0,0,1,1
128392000,0.00026631585,-0.00559264,0.001331579,4000,0,0.059424434,0.14778002,-9.997662,4000,0,0,1,1
128396000,-0.0010652612,-0.0074568526,-2.7779865e-09,4000,0,0.08097224,0.1382032,-9.997662,4000,0,0,1,1
128400000,-0.0018642095,-0.0047936905,-0.0013315838,4000,0,0.07977514,0.13940027,-9.977312,4000,0,0,1,1
128404000,-0.0029294766,-0.0023968446,-0.001331584,4000,0,0.07259254,0.14059737,-9.949778,4000,0,0,1,1
128408000,-0.0031957948,-0.0031957927,-0.0005326318,4000,0,0.086957745,0.15017422,-9.944989,4000,0,0,1,1
128412000,-0.0013315814,-0.0047936896,3.604397e-09,4000,0,0.10611136,0.15975104,-9.953368,4000,0,0,1,1
128416000,0.0,-0.006657903,2.838976e-09,4000,0,0.101322964,0.1573568,-9.962945,4000,0,0,1,1
128424000,-0.005858953,-0.0042610588,-0.0013315886,4000,0,0.088154845,0.1370061,-9.943791,4000,0,0,1,1
128428000,-0.0074568517,-0.0050600064,-0.0018642138,4000,0,0.09653455,0.14299159,-9.943791,4000,0,0,1,1
128432000,-0.005060005,-0.003994744,-0.002130528,4000,0,0.07857804,0.13221769,-9.956962,4000,0,0,1,1
128440000,0.0010652608,-0.0071905362,4.862842e-09,4000,0,0.09533746,0.13940027,-9.980902,4000,0,0,1,1
128448000,-0.002130524,-0.006657903,-0.0023968497,4000,0,0.07738095,0.1561597,-9.976115,4000,0,0,1,1
128452000,-0.0018642147,-0.0066579026,-0.0015978963,4000,0,0.084563546,0.16453944,-9.961748,4000,0,0,1,1
128456000,-0.0015978997,-0.006657902,-0.00026631565,4000,0,0.089351945,0.14059737,-9.939005,4000,0,0,1,1
128464000,0.00026631792,-0.0053263227,-0.0021305277,4000,0,0.07857804,0.11186694,-9.972522,4000,0,0,1,1
128468000,-7.565258e-09,-0.003994743,0.0026631607,4000,0,0.08935194,0.13940024,-9.962945,4000,0,0,1,1
128472000,-0.00026631803,-0.005858956,0.005326322,4000,0,0.08097224,0.1561597,-9.954566,4000,0,0,1,1
128476000,-0.00026631093,-0.005858956,0.0026631611,4000,0,0.07019833,0.15975104,-9.980901,4000,0,0,1,1
128480000,-0.00053263054,-0.0071905362,0.0023968443,4000,0,0.072592534,0.16693364,-10.008435,4000,0,0,1,1
128488000,-0.0015978875,-0.010652646,0.00026631405,4000,0,0.07618384,0.12982349,-9.978508,4000,0,0,1,1
128492000,-0.0018642113,-0.007989485,-0.00026631868,4000,0,0.08097224,0.16334234,-9.954567,4000,0,0,1,1
128500000,-0.0029294763,-0.0039947433,-2.3629405e-09,4000,0,0.084563546,0.12503508,-9.989282,4000,0,0,1,1
128504000,-0.00346211,-0.005592639,0.0002663169,4000,0,0.08216935,0.10348726,-9.988085,4000,0,0,1,1
128508000,-0.0021305326,-0.0047936877,0.002130531,4000,0,0.07857804,0.12144374,-9.979705,4000,0,0,1,1
128512000,-0.0010652654,-0.0031957934,0.0018642136,4000,0,0.090549044,0.14778002,-9.966538,4000,0,0,1,1
128516000,-0.0005326303,-0.0023968455,-0.0005326321,4000,0,0.103717156,0.16214524,-9.982099,4000,0,0,1,1
128520000,9.456571e-10,-0.0018642133,-0.0015978965,4000,0,0.07977514,0.16813073,-9.985692,4000,0,0,1,1
128524000,0.0013315796,-0.0023968457,-0.00026631533,4000,0,0.04984761,0.18010171,-9.961748,4000,0,0,1,1
128528000,0.0015978956,-0.0050600064,0.00079894735,4000,0,0.060621534,0.1753133,-9.9581585,4000,0,0,1,1
128536000,-0.0002663149,-0.00479369,-1.4785099e-09,4000,0,0.060621534,0.16214524,-9.984494,4000,0,0,1,1
128540000,1.7021826e-09,-0.004527375,-0.0010652643,4000,0,0.07378964,0.16693364,-9.992874,4000,0,0,1,1
128548000,0.002130528,-0.0037284268,1.1642812e-09,4000,0,0.07618384,0.16573654,-9.947385,4000,0,0,1,1
128552000,-0.00026631617,-0.0021305294,-1.8812163e-09,4000,0,0.06181863,0.16094814,-9.944989,4000,0,0,1,1
128560000,-0.0026631614,-0.0023968448,1.1402383e-09,4000,0,0.08935194,0.1573568,-9.972522,4000,0,0,1,1
128564000,-0.0015978976,-0.0055926386,0.00079895207,4000,0,0.085760646,0.14897709,-9.976115,4000,0,0,1,1
128568000,-0.0010652652,-0.0074568517,0.0013315825,4000,0,0.10850557,0.14179447,-9.962945,4000,0,0,1,1
128576000,-0.0021305291,-0.005060006,-0.0005326338,4000,0,0.12167367,0.1334148,-9.953368,4000,0,0,1,1
128580000,-0.0007989523,-0.0037284247,0.0018642142,4000,0,0.101322964,0.14418872,-9.940201,4000,0,0,1,1
128584000,-0.0015978965,-0.0026631618,0.0010652633,4000,0,0.102520056,0.16094814,-9.937808,4000,0,0,1,1
128588000,-0.0039947396,-0.0047936924,-0.0010652657,4000,0,0.09414036,0.15855393,-9.949778,4000,0,0,1,1
128596000,-6.856013e-10,-0.0058589564,-0.00079894275,4000,0,0.100125864,0.15855393,-9.960552,4000,0,0,1,1
128600000,-3.0733846e-10,-0.005060006,-0.00053263246,4000,0,0.086957745,0.17411622,-9.971325,4000,0,0,1,1
128604000,-0.0013315828,-0.0066579026,0.00053262996,4000,0,0.088154845,0.16453944,-9.980902,4000,0,0,1,1
128608000,-0.0018642147,-0.006125271,0.0013315793,4000,0,0.10012586,0.13221769,-9.964144,4000,0,0,1,1
128616000,-0.001065267,-0.0055926377,0.0037284284,4000,0,0.086957745,0.15496257,-9.974917,4000,0,0,1,1
128620000,-0.00053263095,-0.005858955,0.003195795,4000,0,0.07378964,0.19087559,-9.982099,4000,0,0,1,1
128624000,-0.0010652598,-0.0055926405,0.00053263106,4000,0,0.07857804,0.1848901,-9.967735,4000,0,0,1,1
128628000,-0.0018642107,-0.0074568526,-0.0005326332,4000,0,0.06540993,0.16094814,-9.95217,4000,0,0,1,1
128632000,-0.0034621109,-0.0074568517,-4.1019064e-09,4000,0,0.05104472,0.13461187,-9.962945,4000,0,0,1,1
128636000,-0.0029294756,-0.003728427,-0.0007989515,4000,0,0.05703022,0.12264085,-9.979705,4000,0,0,1,1
128640000,0.0005326349,-0.0039947447,-0.0029294728,4000,0,0.07618384,0.12982349,-9.972522,4000,0,0,1,1
128644000,0.0018642095,-0.006391589,-0.002130528,4000,0,0.08216935,0.12862639,-9.964144,4000,0,0,1,1
128648000,-0.00053263525,-0.0058589545,-0.00053263723,4000,0,0.058227316,0.12383795,-9.980902,4000,0,0,1,1
128656000,-0.0034621118,-0.008522117,-5.7428484e-10,4000,0,0.11329397,0.1382032,-9.994071,4000,0,0,1,1
128660000,-0.002396851,-0.008522115,0.0021305317,4000,0,0.12526499,0.11186694,-9.977312,4000,0,0,1,1
128664000,-0.0010652628,-0.007723168,0.0013315838,4000,0,0.07857804,0.16693364,-9.912668,4000,0,0,1,1
128668000,-0.0026631549,-0.005326324,-0.001597902,4000,0,0.08935194,0.19686113,-9.917456,4000,0,0,1,1
128672000,-0.0047936914,-0.0037284237,-0.00026632138,4000,0,0.119279474,0.16813073,-9.956962,4000,0,0,1,1
128680000,-0.00026631294,-0.0061252704,0.0010652705,4000,0,0.102520056,0.14897709,-9.977312,4000,0,0,1,1
128684000,-0.0005326296,-0.0061252713,-0.00026631678,4000,0,0.07618384,0.1573568,-9.994071,4000,0,0,1,1
128688000,-0.0013315822,-0.0061252713,0.0005326305,4000,0,0.06181863,0.16453944,-9.996466,4000,0,0,1,1
128696000,-0.0013315796,-0.0085221175,0.0013315802,4000,0,0.09414036,0.1382032,-9.985692,4000,0,0,1,1
128704000,-0.004261055,-0.004527376,-0.002130535,4000,0,0.047453415,0.19326982,-9.968931,4000,0,0,1,1
128708000,-0.0034621074,-0.0010652653,-0.0021305326,4000,0,0.09773165,0.14299159,-10.028785,4000,0,0,1,1
128712000,-0.00026631527,0.0005326309,-0.0013315813,4000,0,0.086957745,0.13221769,-10.008435,4000,0,0,1,1
128716000,0.0021305284,-0.001597898,-0.0007989487,4000,0,0.06301573,0.12623219,-9.980902,4000,0,0,1,1
128720000,0.002130529,-0.0039947424,-0.0010652663,4000,0,0.09892875,0.14059737,-9.979705,4000,0,0,1,1
128728000,-0.0026631607,-0.005858954,-0.0021305333,4000,0,0.058227323,0.14059737,-9.988085,4000,0,0,1,1
128732000,-0.0015978992,-0.005326322,-0.000798947,4000,0,0.04505922,0.15855393,-9.991675,4000,0,0,1,1
128736000,-3.3097997e-10,-0.0047936905,-0.00053262984,4000,0,0.09054904,0.1573568,-9.985692,4000,0,0,1,1
128740000,1.7967484e-09,-0.0042610588,-0.001597897,4000,0,0.09892875,0.14418869,-9.982099,4000,0,0,1,1
128744000,-0.0010652652,-0.0029294773,-0.00079895,4000,0,0.08097224,0.14299159,-9.967735,4000,0,0,1,1
128748000,-0.0023968455,-0.0023968446,-0.00026631766,4000,0,0.07498674,0.14059737,-9.964144,4000,0,0,1,1
128752000,-0.002929477,-0.003728427,-0.0013315802,4000,0,0.05703022,0.14299159,-9.986889,4000,0,0,1,1
128756000,-0.0029294775,-0.0045273756,-0.0018642123,4000,0,0.05703022,0.16094814,-9.998858,4000,0,0,1,1
128760000,-0.0002663165,-0.0031957948,-0.0010652618,4000,0,0.07857804,0.16573654,-9.974917,4000,0,0,1,1
128764000,0.0015978959,-0.0034621102,-0.00026631416,4000,0,0.07977514,0.14897712,-9.953368,4000,0,0,1,1
128768000,-1.8203897e-09,-0.0066579035,0.0010652608,4000,0,0.07738095,0.14299159,-9.960552,4000,0,0,1,1
128772000,-0.0010652659,-0.006125272,0.0015978945,4000,0,0.08935194,0.13341478,-9.979705,4000,0,0,1,1
128776000,-0.0010652638,-0.0037284265,0.00053263135,4000,0,0.10730846,0.12862639,-9.989282,4000,0,0,1,1
128780000,-0.00053263037,-0.00559264,-0.0007989473,4000,0,0.12167367,0.16573654,-9.974917,4000,0,0,1,1
128784000,-0.0005326328,-0.007456852,-0.00079894817,4000,0,0.12167367,0.19566406,-9.964144,4000,0,0,1,1
128788000,-0.0013315836,-0.008255802,0.00026631413,4000,0,0.090549044,0.18848139,-9.949778,4000,0,0,1,1
128792000,-0.0021305287,-0.007989486,-2.4563036e-09,4000,0,0.053438917,0.17291912,-9.934215,4000,0,0,1,1
128800000,-0.00053263135,-0.00905475,-0.001331575,4000,0,0.10491426,0.14538579,-10.013225,4000,0,0,1,1
128808000,0.00053262705,-0.0050600064,0.0015978963,4000,0,0.11449106,0.1573568,-9.982099,4000,0,0,1,1
128812000,0.00026631585,-0.004527375,0.0015978963,4000,0,0.047453415,0.21122636,-9.917456,4000,0,0,1,1
128816000,3.617139e-09,-0.004527375,-0.0007989489,4000,0,0.05104472,0.20643795,-9.927032,4000,0,0,1,1
128820000,-0.00079894706,-0.0037284258,-0.0015978983,4000,0,0.09773165,0.1513713,-9.971325,4000,0,0,1,1
128824000,-0.0002663177,-0.00479369,-0.00079894747,4000,0,0.11568816,0.12982352,-9.984494,4000,0,0,1,1
128828000,0.00079894933,-0.0047936905,-0.0013315792,4000,0,0.11089977,0.14299159,-9.971324,4000,0,0,1,1
128832000,0.00079895026,-0.0034621092,-0.002130529,4000,0,0.08336645,0.15496257,-9.972522,4000,0,0,1,1
128836000,-0.0007989519,-0.0047936896,-2.2823186e-09,4000,0,0.05583312,0.15017419,-9.985692,4000,0,0,1,1
128840000,-0.00053263566,-0.005592639,0.00213053,4000,0,0.05104472,0.13221769,-9.995269,4000,0,0,1,1
128844000,0.0013315825,-0.0053263213,0.0010652678,4000,0,0.116885275,0.09510752,-10.018012,4000,0,0,1,1
128848000,-0.0013315779,-0.0066579035,-0.00026632156,4000,0,0.149207,0.10827567,-9.979705,4000,0,0,1,1
128852000,-0.0034621095,-0.006924219,-0.0002663209,4000,0,0.09414036,0.17411622,-9.907879,4000,0,0,1,1
128856000,-0.0013315825,-0.0063915867,0.0005326365,4000,0,0.09773165,0.17291912,-9.918654,4000,0,0,1,1
128864000,-0.0034621092,-0.00426106,0.0010652603,4000,0,0.101322964,0.13102059,-9.960552,4000,0,0,1,1
128872000,-0.0031957943,-0.0047936896,0.00026631737,4000,0,0.07259254,0.12862639,-9.930624,4000,0,0,1,1
128876000,-0.004527372,-0.0034621116,-0.0015979004,4000,0,0.12526499,0.10348726,-9.992873,4000,0,0,1,1
128880000,-0.0066579017,-0.0045273765,-0.0031957948,4000,0,0.1408273,0.07834812,-10.012027,4000,0,0,1,1
128884000,-0.0039947424,-0.0047936942,-0.0034621053,4000,0,0.072592534,0.13102059,-9.925836,4000,0,0,1,1
128892000,-0.001331584,-0.003728425,-0.0013315808,4000,0,0.10850557,0.12503508,-9.960552,4000,0,0,1,1
128896000,-0.0015979008,-0.0021305275,0.0023968439,4000,0,0.09653455,0.102290146,-9.972522,4000,0,0,1,1
128900000,-0.002130529,-0.0023968455,0.0021305291,4000,0,0.11089977,0.11545825,-9.976115,4000,0,0,1,1
128904000,-0.003195792,-0.0023968474,0.00026631524,4000,0,0.11449106,0.135809,-9.979705,4000,0,0,1,1
128908000,-0.0045273746,-0.0023968457,-0.00026631725,4000,0,0.09533746,0.13102059,-9.991675,4000,0,0,1,1
128912000,-0.00426106,-0.0053263213,0.0010652692,4000,0,0.09533746,0.11904955,-9.989282,4000,0,0,1,1
128920000,0.0010652714,-0.0058589564,-0.0013315737,4000,0,0.088154845,0.1370061,-9.960552,4000,0,0,1,1
128924000,0.0013315859,-0.003195793,-0.0034621086,4000,0,0.07259254,0.1549626,-9.947385,4000,0,0,1,1
128928000,-3.1915923e-09,-0.003994742,-0.0013315827,4000,0,0.06181863,0.16453944,-9.953368,4000,0,0,1,1
128932000,0.0007989477,-0.003994743,-0.0007989474,4000,0,0.060621534,0.16214524,-9.943791,4000,0,0,1,1
128936000,0.0010652663,-0.003994742,-0.002130529,4000,0,0.071395434,0.1549626,-9.949778,4000,0,0,1,1
128940000,-0.00026631806,-0.0037284256,-0.00053263403,4000,0,0.09054906,0.12982349,-9.959354,4000,0,0,1,1
128944000,-0.0013315813,-0.003994742,-1.3699998e-09,4000,0,0.12287079,0.12024664,-9.943791,4000,0,0,1,1
128952000,0.0013315799,-0.00559264,-0.0005326293,4000,0,0.10491426,0.1346119,-9.989282,4000,0,0,1,1
128956000,0.0015978963,-0.0026631614,1.7502679e-09,4000,0,0.088154845,0.13940027,-10.003648,4000,0,0,1,1
128960000,0.00213053,-0.0015978963,-0.0007989474,4000,0,0.070198335,0.13940027,-10.000054,4000,0,0,1,1
128968000,-0.0005326348,-0.006657902,-0.0010652698,4000,0,0.060621534,0.12503508,-9.984494,4000,0,0,1,1
128972000,-0.0015978987,-0.0047936896,-2.778789e-09,4000,0,0.085760646,0.1525684,-9.989282,4000,0,0,1,1
128976000,-0.0021305273,-0.004527376,-0.0013315817,4000,0,0.09294326,0.17052492,-9.984494,4000,0,0,1,1
128980000,-0.004793688,-0.0047936896,-0.0026631653,4000,0,0.08216935,0.16094814,-9.960552,4000,0,0,1,1
128984000,-0.0053263246,-0.006657902,-0.002396843,4000,0,0.086957745,0.14538579,-9.95217,4000,0,0,1,1
128992000,-0.0021305352,-0.0098536955,-0.000266313,4000,0,0.10012586,0.13102059,-9.972522,4000,0,0,1,1
128996000,-0.0018642197,-0.0074568507,0.0018642121,4000,0,0.12406788,0.11545825,-9.988085,4000,0,0,1,1
129004000,-0.0015978955,-0.0029294782,-0.00026631763,4000,0,0.06181863,0.15975104,-9.994071,4000,0,0,1,1
129008000,-0.0013315812,-0.003994742,0.0002663169,4000,0,0.072592534,0.16813073,-9.974917,4000,0,0,1,1
129012000,-0.0007989469,-0.005858956,-0.00079894706,4000,0,0.102520056,0.1382032,-9.966538,4000,0,0,1,1
129016000,-0.0005326281,-0.003994743,-0.0026631611,4000,0,0.090549044,0.1561597,-9.971325,4000,0,0,1,1
129020000,-0.0007989486,-0.004527375,-0.002929478,4000,0,0.089351945,0.1573568,-10.000055,4000,0,0,1,1
129024000,-0.0021305345,-0.008788432,-0.0021305305,4000,0,0.09174616,0.15017419,-10.004846,4000,0,0,1,1
129028000,-0.0007989535,-0.009321064,-0.00053262815,4000,0,0.09533746,0.15256837,-9.982099,4000,0,0,1,1
129032000,0.000532627,-0.0069242185,0.0013315842,4000,0,0.13603888,0.10109305,-10.000054,4000,0,0,1,1
129040000,-0.0010652618,-0.0071905362,0.0007989478,4000,0,0.069001235,0.1549626,-9.966538,4000,0,0,1,1
129048000,0.0015979005,-0.0039947424,-0.0021305264,4000,0,0.12885627,0.11306405,-9.994071,4000,0,0,1,1
129056000,0.0005326302,-0.0031957936,-0.0018642142,4000,0,0.10730846,0.14777999,-9.966538,4000,0,0,1,1
129060000,-3.6644217e-09,-0.004527375,0.0007989475,4000,0,0.072592534,0.14299159,-9.971325,4000,0,0,1,1
129064000,-0.0007989478,-0.005060006,0.00053263095,4000,0,0.09773165,0.11904955,-9.992874,4000,0,0,1,1
129068000,-0.0013315786,-0.0045273756,-0.00079894956,4000,0,0.12885627,0.12623219,-9.994071,4000,0,0,1,1
129072000,-0.0002663164,-0.0039947424,-0.00053263095,4000,0,0.085760646,0.15975104,-9.961747,4000,0,0,1,1
129080000,0.0010652645,-0.0058589554,0.0005326323,4000,0,0.08336645,0.1334148,-9.961747,4000,0,0,1,1
129088000,-0.0005326306,-0.0069242185,-0.001065267,4000,0,0.103717156,0.1370061,-9.978508,4000,0,0,1,1
129092000,-0.000798948,-0.0058589554,-0.0010652656,4000,0,0.09892875,0.14897709,-9.977312,4000,0,0,1,1
129096000,-0.0005326324,-0.004527375,-0.00079894834,4000,0,0.09653455,0.16813073,-9.972522,4000,0,0,1,1
129100000,-0.0015978997,-0.005592639,0.00079894694,4000,0,0.13364467,0.13102059,-10.007238,4000,0,0,1,1
129104000,-0.002929478,-0.0063915877,0.0010652624,4000,0,0.13125047,0.10707857,-10.0060425,4000,0,0,1,1
129108000,-0.0021305264,-0.0061252723,-0.00026631483,4000,0,0.04865051,0.1872843,-9.946186,4000,0,0,1,1
129112000,-0.00079894904,-0.0063915877,2.7963416e-09,4000,0,0.04505922,0.20164956,-9.953368,4000,0,0,1,1
129116000,-0.00079894846,-0.0061252713,-1.7783042e-10,4000,0,0.10491426,0.14059737,-9.985692,4000,0,0,1,1
129120000,-0.0010652634,-0.0042610588,-0.00053263333,4000,0,0.10491426,0.13102059,-9.985692,4000,0,0,1,1
129124000,-0.0023968446,-0.0039947424,-0.00079895044,4000,0,0.085760646,0.14179447,-9.980902,4000,0,0,1,1
129128000,-0.0031957948,-0.0031957927,-1.7579598e-09,4000,0,0.085760646,0.14059737,-9.983297,4000,0,0,1,1
129136000,0.0002663173,-0.0042610588,2.0060762e-09,4000,0,0.13723598,0.10588147,-9.983297,4000,0,0,1,1
129140000,-0.00053263234,-0.005060006,-1.2940268e-09,4000,0,0.07738095,0.16453944,-9.936609,4000,0,0,1,1
129144000,-0.0013315815,-0.004527375,0.0005326308,4000,0,0.07498674,0.17770751,-9.968931,4000,0,0,1,1
129148000,-0.00026631542,-0.0039947424,1.3014811e-09,4000,0,0.10730846,0.14897709,-9.997662,4000,0,0,1,1
129152000,0.0005326329,-0.002396845,-0.0005326314,4000,0,0.09414036,0.1370061,-9.967735,4000,0,0,1,1
129156000,0.00053263165,-0.0023968453,0.00026631614,4000,0,0.09773165,0.1370061,-9.978508,4000,0,0,1,1
129160000,3.0733854e-10,-0.0034621095,-6.751023e-10,4000,0,0.12287079,0.15017419,-9.991675,4000,0,0,1,1
129164000,-0.00026631428,-0.0042610588,-0.0015978974,4000,0,0.12287079,0.15137127,-9.968931,4000,0,0,1,1
129168000,-0.0007989498,-0.005326322,-0.0010652655,4000,0,0.13364469,0.11665535,-9.986889,4000,0,0,1,1
129176000,-0.0018642119,-0.006125272,-0.0010652648,4000,0,0.07378964,0.16573654,-9.961748,4000,0,0,1,1
129184000,-0.0026631593,-0.004527376,-0.0018642144,4000,0,0.12646209,0.14418869,-9.996466,4000,0,0,1,1
129188000,-0.000798946,-0.003195796,-0.002929476,4000,0,0.11209687,0.135809,-9.977312,4000,0,0,1,1
129192000,0.00079894654,-0.0037284272,-0.001597895,4000,0,0.07977514,0.12982352,-9.973721,4000,0,0,1,1
129196000,-0.00026631716,-0.005592639,-0.0015978989,4000,0,0.06660703,0.12742929,-9.974917,4000,0,0,1,1
129200000,-0.0018642116,-0.006657902,-0.0026631642,4000,0,0.07738095,0.12144374,-9.96534,4000,0,0,1,1
129208000,-0.0010652705,-0.004527374,0.0018642118,4000,0,0.11329397,0.10947277,-10.002451,4000,0,0,1,1
129216000,-0.001597896,-0.0031957922,0.0031957957,4000,0,0.06660703,0.22080316,-9.970129,4000,0,0,1,1
129220000,1.98588e-09,-0.0026631607,0.00079894986,4000,0,0.11568816,0.1765104,-9.972522,4000,0,0,1,1
129224000,-0.0010652631,-0.002929478,-0.0007989495,4000,0,0.10012586,0.1753133,-9.961748,4000,0,0,1,1
129228000,-0.00079894986,-0.0045273746,0.00026631687,4000,0,0.07738095,0.1765104,-9.962945,4000,0,0,1,1
129232000,-0.00079895195,-0.006125271,0.0026631616,4000,0,0.08216935,0.1513713,-9.967735,4000,0,0,1,1
129236000,-0.0015978998,-0.0050600064,0.0037284242,4000,0,0.09414036,0.1346119,-9.964144,4000,0,0,1,1
129240000,-0.0007989513,-0.0013315803,0.0026631607,4000,0,0.08935194,0.12623219,-9.948582,4000,0,0,1,1
129248000,-0.001065264,-0.0005326335,-0.0013315806,4000,0,0.072592534,0.16094814,-10.032378,4000,0,0,1,1
129256000,-0.00026631803,-0.0015978956,-0.0007989501,4000,0,0.13723598,0.055603217,-9.913863,4000,0,0,1,1
129260000,-6.3831856e-10,-0.0039947424,-0.0007989481,4000,0,0.09414036,0.11066986,-9.962945,4000,0,0,1,1
129264000,0.0069242218,0.0002663143,-0.00213052,4000,0,0.007949085,0.24953353,-9.978508,4000,0,0,1,1
129268000,0.0029294752,-0.0034621097,-0.0007989568,4000,0,0.15758671,0.067574225,-9.927032,4000,0,0,1,1
129272000,-0.0005326338,-0.0058589554,-6.4381616e-09,4000,0,0.12765917,0.09151626,-9.994071,4000,0,0,1,1
129276000,0.010652646,0.0053263223,-0.0010652447,4000,0,-0.10457839,0.35846975,-10.107797,4000,0,0,1,1
129280000,0.017310549,0.010918962,-0.0018642046,4000,0,-0.027963951,0.25073066,-10.022801,4000,0,0,1,1
129284000,0.0058589503,0.0015979022,-0.001597909,4000,0,0.22582147,-0.074880786,-9.827673,4000,0,0,1,1
129288000,-0.004793695,-0.0069242152,-0.0013315916,4000,0,0.21863884,-0.07727499,-9.876754,4000,0,0,1,1
129292000,-0.0063915895,-0.011984227,-0.0015978927,4000,0,0.118082374,0.084333636,-10.001252,4000,0,0,1,1
129296000,-0.0021305336,-0.010652644,-0.00026630212,4000,0,0.041467905,0.21242346,-9.997662,4000,0,0,1,1
129300000,0.01012001,0.000532632,0.00079898397,4000,0,-0.093804516,0.36445525,-10.029983,4000,0,0,1,1
129304000,0.013848437,0.005060012,-0.0005326176,4000,0,-0.01240164,0.25192773,-10.027589,4000,0,0,1,1
129308000,0.0023968427,-0.0023968408,-0.0010652798,4000,0,0.21744175,-0.03657356,-9.928231,4000,0,0,1,1
129312000,-0.00026631885,-0.005858956,0.0007989434,4000,0,0.149207,0.04243511,-9.949778,4000,0,0,1,1
129320000,-0.0015978962,-0.008255804,0.0021305191,4000,0,0.10611136,0.10468435,-9.948582,4000,0,0,1,1
129324000,0.0037284198,-0.0015978925,0.0026631723,4000,0,0.000766486,0.20524085,-9.994071,4000,0,0,1,1
129328000,0.008522115,0.0029294835,0.0010652727,4000,0,0.023511397,0.22080316,-10.013225,4000,0,0,1,1
129332000,-0.002929476,-0.0061252713,-0.000532647,4000,0,0.2545519,-0.03417935,-9.940201,4000,0,0,1,1
129336000,-0.010386331,-0.012516858,-0.00026632534,4000,0,0.19589394,0.02088728,-9.915061,4000,0,0,1,1
129340000,-0.0002663167,-0.0039947424,1.2649366e-08,4000,0,-0.051905945,0.3069944,-9.952171,4000,0,0,1,1
129344000,0.007989487,0.00079894834,-0.0015978862,4000,0,0.015131698,0.22080316,-10.018012,4000,0,0,1,1
129348000,0.0034621058,-0.0061252634,-0.0034621272,4000,0,0.18272582,-0.007843142,-9.968931,4000,0,0,1,1
129352000,0.003994742,-0.004261061,-0.002130526,4000,0,0.06181863,0.14897709,-9.970129,4000,0,0,1,1
129356000,0.0039947415,-3.5555108e-09,0.00053263793,4000,0,0.059424434,0.18967849,-10.043153,4000,0,0,1,1
129360000,-0.0034621092,-0.0034621144,0.0029294728,4000,0,0.1707548,0.025675679,-9.947385,4000,0,0,1,1
129364000,0.0007989452,-0.00079894403,0.0031957957,4000,0,0.030694002,0.19805823,-9.947385,4000,0,0,1,1
129368000,0.005326322,0.00053263793,1.5696305e-09,4000,0,0.04386212,0.24713936,-10.028786,4000,0,0,1,1
129372000,-0.0007989489,-0.0047936854,-0.00266317,4000,0,0.18631712,0.07116555,-9.970129,4000,0,0,1,1
129376000,-0.0037284286,-0.007190533,-0.0021305333,4000,0,0.1504041,0.083136536,-9.950975,4000,0,0,1,1
129380000,-0.002396849,-0.0069242185,-0.0005326296,4000,0,0.10970267,0.1370061,-9.984494,4000,0,0,1,1
129384000,0.0034621127,-0.000532634,-0.0013315722,4000,0,0.0019635856,0.23397128,-10.03118,4000,0,0,1,1
129388000,0.0026631618,0.0010652647,-0.0010652628,4000,0,0.071395434,0.14777999,-10.035969,4000,0,0,1,1
129396000,-0.0069242213,-0.012516855,0.0029294891,4000,0,0.09892875,0.15855393,-9.942595,4000,0,0,1,1
129400000,0.0039947373,-0.003994733,0.002130555,4000,0,-0.08183349,0.34769586,-10.051532,4000,0,0,1,1
129404000,0.006391587,0.0002663203,0.000266325,4000,0,0.0366795,0.20643795,-10.007238,4000,0,0,1,1
129408000,0.00026631635,-0.0026631597,-0.0007989542,4000,0,0.18272582,0.05081482,-9.885133,4000,0,0,1,1
129412000,-0.0007989487,-0.002663161,-0.0005326333,4000,0,0.13723598,0.12503508,-9.942594,4000,0,0,1,1
129416000,-0.006125274,-0.017843178,-0.00026631716,4000,0,0.28926784,0.098698854,-9.675642,4000,0,0,1,1
129420000,-0.020506358,-0.043409523,0.0015978628,4000,0,0.42693445,-0.092837304,-9.700782,4000,0,0,1,1
129424000,-0.018109536,-0.031158976,0.0037283765,4000,0,-0.0028248131,0.08553074,-10.395101,4000,0,0,1,1
129428000,-0.0018642378,-0.0045273597,0.0029294856,4000,0,-0.2625957,0.4482523,-10.3412285,4000,0,0,1,1
129432000,0.014913697,0.0066579184,0.0007989669,4000,0,-0.15006824,0.4985305,-10.063502,4000,0,0,1,1
129436000,0.01837581,0.0077231727,0.00026631393,4000,0,0.06181863,0.17890461,-9.994071,4000,0,0,1,1
129440000,0.0015978987,-0.003195797,0.0005326086,4000,0,0.2988446,-0.14191844,-9.82528,4000,0,0,1,1
129448000,0.005326327,0.00026631152,-0.0015978828,4000,0,-0.055497263,0.36086395,-10.039559,4000,0,0,1,1
129452000,0.010386332,0.005592634,9.104994e-09,4000,0,0.015131698,0.26150462,-10.020406,4000,0,0,1,1
129456000,0.0002663191,-0.000798954,0.0015978937,4000,0,0.24018666,-0.040164858,-9.935413,4000,0,0,1,1
129460000,-0.0066578994,-0.0077231727,0.0023968422,4000,0,0.21863884,-0.024602547,-9.966538,4000,0,0,1,1
129464000,-0.0029294766,-0.0066579017,0.0015979041,4000,0,0.0294969,0.22918288,-9.989282,4000,0,0,1,1
