timestamp,timestamp_sample,ref_timestamp,ref_lat,ref_lon,x,y,z,delta_xy[0],delta_xy[1],delta_z,vx,vy,vz,z_deriv,delta_vxy[0],delta_vxy[1],delta_vz,ax,ay,az,heading,heading_var,unaided_heading,delta_heading,tilt_var,ref_alt,dist_bottom,eph,epv,evh,evv,vxy_max,vz_max,hagl_min,hagl_max,xy_valid,z_valid,v_xy_valid,v_z_valid,xy_reset_counter,z_reset_counter,vxy_reset_counter,vz_reset_counter,heading_reset_counter,heading_good_for_control,xy_global,z_global,dist_bottom_valid,dist_bottom_sensor_bitfield,dead_reckoning
127136000,127136000,0,nan,nan,0.0017196687,0.00070228137,-0.03475838,0.0,0.0,0.0,0.010319271,0.0015882197,-0.118107334,-0.11780106,0.0,0.0,0.0010469928,0.034899358,-0.01712555,-0.16962735,-0.0024004022,0.0005849373,-0.00029122218,0.0,0.015530426,nan,0.13475838,0.7701092,5.830252,0.7794873,3.1385944,inf,inf,inf,inf,0,0,0,0,0,1,0,1,0,0,0,0,1,0,1
127632000,127632000,0,nan,nan,0.0052643674,-0.00048733834,-0.029032258,0.0,0.0,0.0,0.010905987,-0.0014572759,-0.0446316,-0.0099177975,-0.0046222447,-0.00042486578,0.0010469928,0.023238977,-0.025303349,-0.00080000603,-0.0025693881,0.00011565887,-0.0002617551,0.0,0.00084588944,nan,0.1288647,0.01032524,4.472138,0.03231027,0.021881372,inf,inf,inf,inf,0,0,0,0,1,1,1,1,0,0,0,0,1,0,1
128136000,128136000,0,nan,nan,0.0009430719,-0.0014564042,0.023892403,0.0,0.0,0.0,-0.003969022,-0.0031493509,-0.011649683,0.044269346,-0.0046222447,-0.00042486578,0.0010469928,0.016694408,0.02454763,-0.051990148,-0.46243584,0.04221633,-0.0002407569,-0.45848045,0.0007973416,nan,0.126777,0.017159615,1.8110293,0.069509946,0.05338423,inf,inf,inf,inf,0,1,0,1,1,1,1,1,1,0,0,0,1,0,1
128632000,128632000,0,nan,nan,-0.0030086518,-0.0016761032,0.011346512,0.0,0.0,0.0,-0.008716739,-0.0030880468,-0.010048651,0.0114436885,-0.0046222447,-0.00042486578,0.0010469928,-0.046082027,-0.003002453,0.0046938653,-0.46024093,0.037616294,-0.0002904489,-0.45848045,0.00051162706,nan,0.089240305,0.011881324,1.0219666,0.046424974,0.07738835,inf,inf,inf,inf,0,1,0,1,1,1,1,1,1,0,0,0,1,0,1
129136000,129136000,0,nan,nan,-0.0028894558,-0.0016956761,-1.8138404e-05,0.0,0.0,0.0,-0.0045875786,-0.006243007,-0.007030786,-0.00072942686,-0.0046222447,-0.00042486578,0.0010469928,0.022877384,-0.06519262,-0.011639669,-0.46149278,0.036491964,-0.0006103628,-0.45848045,0.0004434234,nan,0.094841525,0.014527651,0.7696245,0.049015407,0.084748544,inf,inf,inf,inf,0,1,0,1,1,1,1,1,1,0,0,0,1,0,1
129632000,129632000,0,nan,nan,-0.0005670515,-0.003204494,-0.0056721033,0.0,0.0,0.0,-0.0012792926,-0.008262984,-0.0041222596,-0.0014872185,-0.0046222447,-0.00042486578,0.0010469928,-0.009524112,-0.012351454,0.015336088,-0.4613067,0.035986394,-0.00068273116,-0.45848045,0.00042086668,nan,0.09851285,0.017385533,0.65543747,0.05269817,0.090421245,inf,inf,inf,inf,0,1,0,1,1,1,1,1,1,0,0,0,1,0,1
130136000,130136000,0,nan,nan,0.0005320611,-0.0028240115,-8.480412e-06,0.0,0.0,0.0,-0.00049765164,-0.0052762656,0.0050999103,0.011837267,-0.0046222447,-0.00042486578,0.0010469928,0.016477685,-0.19633284,0.03965385,-0.4604012,0.035680756,-0.0007866449,-0.45848045,0.00040137646,nan,0.09603731,0.012690163,0.57362336,0.042758558,0.08426128,inf,inf,inf,inf,0,1,0,1,1,1,1,1,1,0,0,0,1,0,1
130632000,130632000,0,nan,nan,0.0007410372,-0.001135272,0.0031684174,0.0,0.0,0.0,0.00032922917,-0.0012391907,0.008480477,0.013057137,-0.0046222447,-0.00042486578,0.0010469928,-0.03548343,0.0024222825,-0.016854143,-0.4602552,0.035510972,-0.000764177,-0.45848045,0.0003836079,nan,0.09277405,0.015350296,0.52372646,0.047081407,0.08461783,inf,inf,inf,inf,0,1,0,1,1,1,1,1,1,0,0,0,1,0,1
131136000,131136000,0,nan,nan,0.00046373415,-0.00021898815,0.0019774449,0.0,0.0,0.0,-0.0028754538,-0.0020787786,0.009925147,0.009467973,-0.0046222447,-0.00042486578,0.0010469928,0.0027539206,0.02657146,-0.022707505,-0.46033835,0.035366435,-0.0005481563,-0.45848045,0.00035549118,nan,0.09360747,0.011376313,0.48067528,0.03821529,0.077768445,inf,inf,inf,inf,0,1,0,1,1,1,1,1,1,0,0,0,1,0,1
131632000,131632000,0,nan,nan,-0.00023233068,-0.00074725423,0.0016831654,0.0,0.0,0.0,-0.0015397293,-0.0009309263,0.0075965077,0.0051370556,-0.0046222447,-0.00042486578,0.0010469928,-0.0104858475,-0.0010008734,0.014572403,-0.46083796,0.035267316,-0.0007380168,-0.45848045,0.00034111703,nan,0.09554466,0.013659225,0.45222294,0.042306628,0.07753108,inf,inf,inf,inf,0,1,0,1,1,1,1,1,1,0,0,0,1,0,1
132136000,132136000,0,nan,nan,0.0003451232,-0.00042782715,0.00072425423,0.0,0.0,0.0,-0.0007430558,-0.002485865,0.0034450453,0.00034413082,-0.0046222447,-0.00042486578,0.0010469928,-0.06549213,0.02409845,-0.010230578,-0.45997062,0.035199404,-0.0005994002,-0.45848045,0.00034160694,nan,0.097949356,0.026236402,0.43151549,0.059642807,0.08302357,inf,inf,inf,inf,0,1,0,1,1,1,1,1,1,0,0,0,1,0,1
132632000,132632000,0,nan,nan,0.00027084522,-0.0020240012,-0.0015508815,0.0,0.0,0.0,-0.0027956425,-0.0027136009,0.0012029558,-0.0021486399,-0.0046222447,-0.00042486578,0.0010469928,-0.023455707,-0.017830767,0.017272307,-0.4624177,0.043881096,-0.00053405616,-0.0029205992,0.00035520445,nan,0.10023852,0.060507588,0.41605178,0.09218751,0.09369668,inf,inf,inf,inf,0,1,0,1,1,1,1,1,2,0,0,0,1,0,1
133136000,133136000,0,nan,nan,-0.0015196719,-0.004420734,-0.0028195407,0.0,0.0,0.0,-0.003283416,-0.0035218508,0.0020434498,-0.00087888195,-0.0046222447,-0.00042486578,0.0010469928,0.026649969,0.00054222613,-0.017141921,-0.462176,0.038345784,-0.00052956236,-0.0029205992,0.00037117198,nan,0.100068964,0.113060534,0.4108229,0.13011587,0.10419033,inf,inf,inf,inf,0,1,0,1,1,1,1,1,2,0,0,0,1,0,1
133632000,133632000,0,nan,nan,-0.002493315,-0.0059180427,-0.002134316,0.0,0.0,0.0,0.00027000287,-0.0008924052,0.0022189023,0.00082549255,-0.0046222447,-0.00042486578,0.0010469928,-0.0019580328,-0.005975933,0.015656462,-0.46117622,0.036244992,-0.00071555085,-0.0029205992,0.0003887377,nan,0.10033925,0.184407,0.4118029,0.17238666,0.113976635,inf,inf,inf,inf,0,1,0,1,1,1,1,1,2,0,0,0,1,0,1
134136000,134136000,0,nan,nan,-0.0023573167,-0.0076780394,-0.00017657968,0.0,0.0,0.0,0.0007833449,-0.0022640922,0.002631704,0.0022953928,-0.0046222447,-0.00042486578,0.0010469928,-0.0061791064,-0.011894684,-0.029706394,-0.46064872,0.035095636,-0.00094491686,-0.0029205992,0.00040859837,nan,0.099809825,0.27925864,0.41636318,0.22037399,0.12297647,inf,inf,inf,inf,0,1,0,1,1,1,1,1,2,0,0,0,1,0,1
134632000,134632000,0,nan,nan,-0.0026014883,-0.009833376,-0.0023095498,0.0,0.0,0.0,0.0007548235,-0.002901817,0.00064591976,-0.001688689,-0.0046222447,-0.00042486578,0.0010469928,-0.025141262,-0.008767092,-0.0067176293,-0.4600247,0.03437781,-0.0012643536,-0.0029205992,0.0004299596,nan,0.1019428,0.3968986,0.42850992,0.27248842,0.13109155,inf,inf,inf,inf,0,1,0,1,1,1,1,1,2,0,0,0,1,0,1
135136000,135136000,0,nan,nan,-0.0024561065,-0.012534051,-0.0063821007,0.0,0.0,0.0,0.0046981755,-0.002567992,0.00026755518,-0.0042611053,-0.0046222447,-0.00042486578,0.0010469928,0.0045431224,0.024941348,-0.01714844,-0.4598151,0.033893336,-0.0014072041,-0.0029205992,0.00045429624,nan,0.10075107,0.54353243,0.44178978,0.33036116,0.13776578,inf,inf,inf,inf,0,1,0,1,1,1,1,1,2,0,0,0,1,0,1
135632000,135632000,0,nan,nan,-0.0006904842,-0.0145465415,-0.008992134,0.0,0.0,0.0,0.0016367047,0.00041489815,-0.0005503873,-0.0052955304,-0.0071572475,0.0019386406,0.0010469928,-0.017054582,-0.0056604547,0.026557593,-0.45961386,0.03354622,-0.0015121652,-0.0029205992,0.00047831138,nan,0.10065454,14.142137,0.41786933,0.2826167,0.116517715,inf,inf,inf,inf,0,1,0,1,2,1,2,1,2,0,0,0,1,0,1
136136000,136136000,0,nan,nan,-0.00081427424,-0.014111186,-0.007167148,0.0,0.0,0.0,0.007476646,0.0011762945,0.0022974405,0.0008632274,-0.0071572475,0.0019386406,0.0010469928,-0.018435035,0.08110184,0.015353783,-0.45954454,0.033284508,-0.0016241126,-0.0029205992,0.0005002029,nan,0.101506256,0.06344928,0.40535375,0.20933236,0.105944134,inf,inf,inf,inf,0,1,0,1,2,1,2,1,2,0,0,0,1,0,1
136632000,136632000,0,nan,nan,0.00243319,-0.013317102,-0.004980836,0.0,0.0,0.0,0.009060974,0.0016296149,0.004279707,0.0035434854,-0.0071572475,0.0019386406,0.0010469928,0.020563368,0.0038228533,0.01757685,-0.45989424,0.033087626,-0.0018214113,-0.0029205992,0.0005269418,nan,0.0996594,0.17112085,0.4151113,0.24193752,0.111163504,inf,inf,inf,inf,0,1,0,1,2,1,2,1,2,0,0,0,1,0,1
137136000,137136000,0,nan,nan,0.0074429335,-0.012488134,-0.0033728532,0.0,0.0,0.0,0.012898267,0.00049881515,0.009598039,0.008086191,-0.0071572475,0.0019386406,0.0010469928,0.0025187617,0.0030274384,0.05504116,-0.4599406,0.032935616,-0.0019223643,-0.0029205992,0.00055392063,nan,0.09950522,0.29887515,0.42989355,0.29372886,0.11604812,inf,inf,inf,inf,0,1,0,1,2,1,2,1,2,0,0,0,1,0,1
137632000,137632000,137298000,37.4135339,-121.99656089999999,0.0013151526,-0.00025657084,-0.0048602945,-0.009727469,0.011807502,0.0,0.0006772128,-0.0014427914,-0.005229715,-0.008876411,-0.012440832,-0.0016819163,-0.02094555,-0.011383628,-0.029526599,0.008733011,-0.46039328,0.032817528,-0.0020639696,-0.0029205992,0.0005848529,1.3044062,0.10225505,1.4161868,0.43713903,0.42575818,0.4501166,inf,inf,inf,inf,1,1,1,1,3,1,3,2,2,0,1,1,1,0,0
138136000,138136000,137298000,37.4135339,-121.99656089999999,-0.001027708,-0.0041258805,-0.009241664,-0.009727469,0.011807502,0.0,-0.0063608456,-0.0011757378,-1.8337712e-05,-0.003490307,-0.012440832,-0.0016819163,-0.02094555,-0.03477591,0.0058779693,0.025549902,-0.4606598,0.032726575,-0.002232074,-0.0029205992,0.0006192188,1.3044062,0.10056363,1.0104314,0.41667065,0.31249243,0.31478038,inf,inf,inf,inf,1,1,1,1,3,1,3,2,2,0,1,1,1,0,0
138632000,138632000,137298000,37.4135339,-121.99656089999999,-0.0034658294,-0.0039105103,-0.01207069,-0.009727469,0.011807502,0.0,-0.0052031875,-0.0014762894,0.0021618747,-0.0016354509,-0.012440832,-0.0016819163,-0.02094555,-0.009461917,0.055242516,0.047444362,-0.46089545,0.032651752,-0.002433929,-0.0029205992,0.0006423159,1.3044062,0.10339266,0.8392946,0.41211966,0.28269455,0.2518296,inf,inf,inf,inf,1,1,1,1,3,1,3,2,2,0,1,1,1,0,0
139136000,139136000,137298000,37.4135339,-121.99656089999999,-0.0012038749,-0.0014689985,-0.012038143,-0.009727469,0.011807502,0.0,0.0027887395,0.0027102812,0.006187515,0.0015840584,-0.012440832,-0.0016819163,-0.02094555,0.005354231,0.0045886696,0.011839903,-0.46085143,0.032565616,-0.0024818492,-0.0029205992,0.00059838395,1.3044062,0.10131789,0.6545465,0.36937445,0.23931298,0.18759032,inf,inf,inf,inf,1,1,1,1,3,1,3,2,2,0,1,1,1,0,0
139632000,139632000,137298000,37.4135339,-121.99656089999999,0.001621667,-0.00087444903,-0.015280748,-0.009727469,0.011807502,0.0,0.0057183355,0.0020620557,0.007055162,0.0004959758,-0.012440832,-0.0016819163,-0.02094555,-0.0055893613,-0.010921968,0.013289041,-0.46098056,0.03248822,-0.0026173426,-0.0029205992,0.0005677609,1.3044062,0.101022005,0.6147246,0.36986116,0.25259155,0.16585329,inf,inf,inf,inf,1,1,1,1,3,1,3,2,2,0,1,1,1,0,0
140136000,140136000,137298000,37.4135339,-121.99656089999999,0.004290652,-0.0067100897,-0.016118933,-0.009727469,0.011807502,0.0,0.008021101,-0.004013603,0.006897986,-0.0005323042,-0.012440832,-0.0016819163,-0.02094555,0.026783831,-0.0126095535,0.03202725,-0.46100894,0.032406893,-0.0027132104,-0.0029205992,0.0005278683,1.3044062,0.098630965,0.5919502,0.37321132,0.26728144,0.14896294,inf,inf,inf,inf,1,1,1,1,3,1,3,2,2,0,1,1,1,0,0
140632000,140632000,137298000,37.4135339,-121.99656089999999,0.00060667825,-0.00886932,-0.016046729,-0.009727469,0.011807502,0.0,0.005212213,-0.0066031064,0.00976632,0.0025884344,-0.012440832,-0.0016819163,-0.02094555,-0.00328281,-0.072120816,-0.014971009,-0.46086738,0.032340713,-0.0028135113,-0.0029205992,0.00048765866,1.3044062,0.101686254,0.5805447,0.37497643,0.27848756,0.13536555,inf,inf,inf,inf,1,1,1,1,3,1,3,2,2,0,1,1,1,0,0
141136000,141136000,137298000,37.4135339,-121.99656089999999,0.005233177,-0.009571609,-0.009477394,-0.009727469,0.011807502,0.0,0.010977439,-0.005920104,0.011742339,0.008417286,-0.012440832,-0.0016819163,-0.02094555,-0.027422428,0.08958694,0.007941387,-0.46078217,0.032271426,-0.002828755,-0.0029205992,0.00040436364,1.3044062,0.0997439,0.5183752,0.34590796,0.23797302,0.11582522,inf,inf,inf,inf,1,1,1,1,3,1,3,2,2,0,1,1,1,0,0
141632000,141632000,137298000,37.4135339,-121.99656089999999,0.009119182,-0.012920672,-0.007980353,-0.009727469,0.011807502,0.0,0.012925671,-0.007284721,0.015712908,0.00877731,-0.012440832,-0.0016819163,-0.02094555,0.006631977,-0.013055097,-0.020475125,-0.46110228,0.032224152,-0.0029550504,-0.0029205992,0.00037935743,1.3044062,0.0945724,0.5186225,0.34763065,0.24312599,0.10837198,inf,inf,inf,inf,1,1,1,1,3,1,3,2,2,0,1,1,1,0,0
142136000,142136000,137298000,37.4135339,-121.99656089999999,0.0047640554,-0.017323714,-0.008668136,-0.009727469,0.011807502,0.0,0.0069838786,-0.012032357,0.018108932,0.0064541805,-0.012440832,-0.0016819163,-0.02094555,-0.0022517631,-0.033692613,0.0024959443,-0.4609752,0.03218257,-0.0028276723,-0.0029205992,0.00033785938,1.3044062,0.09766786,0.47697386,0.32701162,0.21307112,0.09727922,inf,inf,inf,inf,1,1,1,1,3,1,3,2,2,0,1,1,1,0,0
142632000,142632000,137298000,37.4135339,-121.99656089999999,0.0031565982,-0.021134986,-0.0052150185,-0.009727469,0.011807502,0.0,0.005249207,-0.015818201,0.023477497,0.011338913,-0.012440832,-0.0016819163,-0.02094555,-0.014791905,-0.0022834355,0.025043262,-0.46052775,0.032158997,-0.002907668,-0.0029205992,0.00032767982,1.3044062,0.09736441,0.4852315,0.32829168,0.22028,0.093701705,inf,inf,inf,inf,1,1,1,1,3,1,3,2,2,0,1,1,1,0,0
143136000,143136000,137298000,37.4135339,-121.99656089999999,0.0011080101,-0.021143053,0.005600724,-0.009727469,0.011807502,0.0,0.0007736634,-0.0153481085,0.033835944,0.02351279,-0.012440832,-0.0016819163,-0.02094555,0.011986775,-0.017611789,0.015097669,-0.45981997,0.032136615,-0.0028205838,-0.0029205992,0.00030616325,1.3044062,0.0952137,0.4552405,0.31251368,0.19847204,0.08752434,inf,inf,inf,inf,1,1,1,1,3,1,3,2,2,0,1,1,1,0,0
143632000,143632000,137298000,37.4135339,-121.99656089999999,-0.0012979765,-0.021838997,0.017111316,-0.009727469,0.011807502,0.0,-0.0029511594,-0.016540155,0.039709955,0.028267426,-0.012440832,-0.0016819163,-0.02094555,-0.028533233,0.0042024762,0.0070706005,-0.45939526,0.032121904,-0.0026878219,-0.0029205992,0.0003014871,1.3044062,0.09323963,0.46769896,0.31575757,0.2054577,0.08676017,inf,inf,inf,inf,1,1,1,1,3,1,3,2,2,0,1,1,1,0,0
144136000,144136000,137298000,37.4135339,-121.99656089999999,-0.0065042838,-0.015860453,0.026021698,-0.009727469,0.011807502,0.0,-0.0062697795,-0.009329154,0.040479504,0.024705233,-0.012440832,-0.0016819163,-0.02094555,0.043565013,-0.02716136,0.010808929,-0.45917058,0.032102074,-0.0026797245,-0.0029205992,0.00029737744,1.3044062,0.09256304,0.4828422,0.31789216,0.2113074,0.086531,inf,inf,inf,inf,1,1,1,1,3,1,3,2,2,0,1,1,1,0,0
144632000,144632000,137298000,37.4135339,-121.99656089999999,-0.012038549,-0.016863784,0.033638496,-0.009727469,0.011807502,0.0,-0.007900777,-0.015953744,0.046239104,0.02619093,-0.012440832,-0.0016819163,-0.02094555,-0.008740753,-0.0072599063,0.030412337,-0.45879924,0.032100413,-0.0026530293,-0.0029205992,0.00029373466,1.3044062,0.09367351,0.49807787,0.32070252,0.21544778,0.08694811,inf,inf,inf,inf,1,1,1,1,3,1,3,2,2,0,1,1,1,0,0
145136000,145136000,137298000,37.4135339,-121.99656089999999,-0.008551941,-0.01810618,0.047372766,-0.009727469,0.011807502,0.0,-0.0075174877,-0.019038979,0.05311944,0.032861806,-0.012440832,-0.0016819163,-0.02094555,-0.019431608,-0.0061621536,-0.0007487833,-0.45834908,0.032062512,-0.0024229416,-0.0029205992,0.00028231944,1.3044062,0.08915468,0.46492946,0.30711976,0.19205181,0.08450866,inf,inf,inf,inf,1,1,1,1,3,1,3,2,2,0,1,1,1,0,0
145632000,145632000,137298000,37.4135339,-121.99656089999999,-0.0038620594,-0.017494041,0.061226122,-0.009727469,0.011807502,0.0,-0.006637321,-0.017869577,0.058150582,0.0351383,-0.012440832,-0.0016819163,-0.02094555,-0.037853196,0.12176635,0.023868864,-0.45859864,0.032044813,-0.002731551,-0.0029205992,0.00028056497,1.3044062,0.08892427,0.47768798,0.3090404,0.19505307,0.08560635,inf,inf,inf,inf,1,1,1,1,3,1,3,2,2,0,1,1,0,0,0
146136000,146136000,137298000,37.4135339,-121.99656089999999,-0.0028488352,-0.016197452,0.0762456,-0.009727469,0.011807502,0.0,-0.005395699,-0.018309768,0.062149882,0.03663592,-0.012440832,-0.0016819163,-0.02094555,-0.007123744,0.0058454275,0.030882655,-0.45848832,0.03203603,-0.002574894,-0.0029205992,0.0002794048,1.3044062,0.089216776,0.49181777,0.31288165,0.19837084,0.0871648,inf,inf,inf,inf,1,1,1,1,3,1,3,2,2,0,1,1,0,0,0
146632000,146632000,137298000,37.4135339,-121.99656089999999,0.0058750412,-0.01596384,0.08850533,-0.009727469,0.011807502,0.0,-0.0023233525,-0.017363958,0.06593391,0.03622393,-0.012440832,-0.0016819163,-0.02094555,-0.020888764,0.006676302,0.029615125,-0.45804304,0.03202735,-0.002288834,-0.0029205992,0.0002785318,1.3044062,0.09091848,0.5051892,0.31657815,0.20119517,0.08874464,inf,inf,inf,inf,1,1,1,1,3,1,3,2,2,0,1,1,0,0,0
147136000,147136000,137298000,37.4135339,-121.99656089999999,0.004439244,-0.01409958,0.09726171,-0.009727469,0.011807502,0.0,-0.0065732845,-0.011714775,0.06916546,0.032450188,-0.012440832,-0.0016819163,-0.02094555,0.016448306,0.017236477,0.02580974,-0.4575353,0.03201824,-0.0020906401,-0.0029205992,0.000272371,1.3044062,0.08969848,0.46974224,0.30344528,0.18115091,0.08685112,inf,inf,inf,inf,1,1,1,1,3,1,3,2,2,0,1,1,0,0,0
147632000,147632000,137298000,37.4135339,-121.99656089999999,0.0030240032,-0.01105817,0.107232094,-0.009727469,0.011807502,0.0,-0.010522666,-0.004170257,0.07213377,0.030545784,-0.012440832,-0.0016819163,-0.02094555,-0.028483117,-0.009221148,0.022723338,-0.45731226,0.03201136,-0.0019712923,-0.0029205992,0.00027231348,1.3044062,0.089262694,0.48123467,0.3076632,0.1843866,0.08845822,inf,inf,inf,inf,1,1,1,1,3,1,3,2,2,0,1,1,0,0,0
148136000,148136000,137298000,37.4135339,-121.99656089999999,0.00091461,-0.008682871,0.116673134,-0.009727469,0.011807502,0.0,-0.013994144,0.0008004051,0.0642107,0.019007074,-0.012440832,-0.0016819163,-0.02094555,0.019202866,0.082491316,-0.18953438,-0.45721412,0.032004315,-0.002207079,-0.0029205992,0.0002725033,1.3044062,0.0885796,0.4939623,0.31271315,0.1882256,0.09010989,inf,inf,inf,inf,1,1,1,1,3,1,3,2,2,0,1,1,0,0,0
148632000,148632000,137298000,37.4135339,-121.99656089999999,0.0015411205,-0.0008143471,0.10634087,-0.009727469,0.011807502,0.0,0.023863459,0.024729425,-0.009412424,-0.05444021,-0.012440832,-0.0016819163,-0.02094555,0.50583583,0.18023509,-0.15435088,-0.473667,0.03199475,-0.01818377,-0.0029205992,0.00027270368,1.3044062,0.10470976,0.5060254,0.31627452,0.1921665,0.09136984,inf,inf,inf,inf,1,1,1,1,3,1,3,2,2,0,1,1,0,0,0
149136000,149136000,137298000,37.4135339,-121.99656089999999,0.067168675,0.023882227,0.032365467,-0.009727469,0.011807502,0.0,0.15067859,0.048484955,-0.19649266,-0.2429862,-0.012440832,-0.0016819163,-0.02094555,-0.17250021,-0.071071215,-0.37605312,-0.47061902,0.03167943,-0.017143374,-0.0029205992,0.0002675833,1.3044062,0.17868516,0.47089615,0.305052,0.17792568,0.08909229,inf,inf,inf,inf,1,1,1,1,3,1,3,2,2,0,1,1,0,0,0
149632000,149632000,137298000,37.4135339,-121.99656089999999,0.123664826,0.052016474,-0.13222529,-0.009727469,0.011807502,0.0,0.067041345,0.01953504,-0.34056592,-0.3901606,-0.012440832,-0.0016819163,-0.02094555,-0.20102783,-0.11454499,-0.1728609,-0.46524402,0.0315355,-0.013483269,-0.0029205992,0.0002671511,1.3044062,0.3432759,0.4816397,0.31001252,0.18056343,0.09029942,inf,inf,inf,inf,1,1,1,1,3,1,3,2,2,0,1,1,0,0,0
150136000,150136000,137298000,37.4135339,-121.99656089999999,0.14743914,0.05752324,-0.3500459,-0.009727469,0.011807502,0.0,-0.03250972,-0.02004341,-0.41330212,-0.46148616,-0.012440832,-0.0016819163,-0.02094555,-0.15319249,-0.01781823,-0.11430773,-0.46334195,0.03151805,-0.010961908,-0.0029205992,0.00026684438,1.3044062,0.56109655,0.4937015,0.3143678,0.18500869,0.09129633,inf,inf,inf,inf,1,1,1,1,3,1,3,2,2,0,1,1,0,0,0
150632000,150632000,137298000,37.4135339,-121.99656089999999,0.13201119,0.049129378,-0.5875763,-0.009727469,0.011807502,0.0,-0.09735282,-0.040299226,-0.4304066,-0.47879902,-0.012440832,-0.0016819163,-0.02094555,-0.10142092,-0.042538155,0.034728084,-0.4614908,0.03145198,-0.008991389,-0.0029205992,0.0002666033,1.3044062,0.79862696,0.5052144,0.31951746,0.19018282,0.09223817,inf,inf,inf,inf,1,1,1,1,3,1,3,2,2,0,1,1,0,0,0
151136000,151136000,137298000,37.4135339,-121.99656089999999,0.08493171,0.02018656,-0.8330282,-0.009727469,0.011807502,0.0,-0.11803566,-0.047268484,-0.30427033,-0.3647952,-0.012440832,-0.0016819163,-0.02094555,-0.011238501,0.04329181,0.9653884,-0.45885128,0.03108988,-0.0074694697,-0.0029205992,0.00026215648,1.3044062,1.0440788,0.4705056,0.3078162,0.17409095,0.08927323,inf,inf,inf,inf,1,1,1,1,3,1,3,2,2,0,1,1,0,0,0
151632000,151632000,137298000,37.4135339,-121.99656089999999,0.040193018,-0.005906225,-0.93894404,-0.009727469,0.011807502,0.0,-0.10320927,-0.03500994,-0.09263942,-0.16192323,-0.012440832,-0.0016819163,-0.02094555,0.042371713,0.03506463,-0.21913926,-0.45705372,0.030966287,-0.0063714674,-0.0029205992,0.0002630637,1.3044062,1.1499946,0.48085365,0.31153092,0.17631835,0.08982506,inf,inf,inf,inf,1,1,1,1,3,1,3,2,2,0,1,1,0,0,0
152136000,152136000,137298000,37.4135339,-121.99656089999999,-0.0014345772,-0.017271522,-1.048486,-0.009727469,0.011807502,0.0,-0.07593572,-0.013548302,-0.14470702,-0.21779872,-0.012440832,-0.0016819163,-0.02094555,0.031837,0.03488826,0.05562417,-0.45691505,0.030911334,-0.0057246555,-0.0029205992,0.00026405265,1.3044062,1.2595366,0.49251324,0.3169473,0.18090367,0.09054965,inf,inf,inf,inf,1,1,1,1,3,1,3,2,2,0,1,1,0,0,0
152632000,152632000,137298000,37.4135339,-121.99656089999999,-0.03157009,-0.02527343,-1.1581128,-0.009727469,0.011807502,0.0,-0.04486497,-0.0049090367,-0.11210952,-0.18918335,-0.012440832,-0.0016819163,-0.02094555,0.07847778,-0.013640288,0.12953672,-0.45638773,0.030899417,-0.005035684,-0.0029205992,0.00026481508,1.3044062,1.3691634,0.5037421,0.32179952,0.1851575,0.0910857,inf,inf,inf,inf,1,1,1,1,3,1,3,2,2,0,1,1,0,0,0
153136000,153136000,137298000,37.4135339,-121.99656089999999,-0.035199825,-0.029881956,-1.2564086,-0.009727469,0.011807502,0.0,-0.01661486,0.00615418,-0.07066066,-0.15589932,-0.012440832,-0.0016819163,-0.02094555,0.0028444119,0.017867936,0.11585652,-0.45615414,0.030877043,-0.004413261,-0.0029205992,0.00026188133,1.3044062,1.4674592,0.46972036,0.30826035,0.17055261,0.087621,inf,inf,inf,inf,1,1,1,1,3,1,3,2,2,0,1,1,0,0,0
153632000,153632000,137298000,37.4135339,-121.99656089999999,-0.035221744,-0.028808614,-1.3289541,-0.009727469,0.011807502,0.0,-0.003441032,0.012073374,-0.035285898,-0.12198465,-0.012440832,-0.0016819163,-0.02094555,0.017094623,0.029948348,0.073298804,-0.45599213,0.030838702,-0.0041035167,-0.0029205992,0.00026261836,1.3044062,1.5400047,0.47992426,0.31277683,0.17497899,0.08808263,inf,inf,inf,inf,1,1,1,1,3,1,3,2,2,0,1,1,0,0,0
154136000,154136000,137298000,37.4135339,-121.99656089999999,-0.033976182,-0.030111803,-1.3824773,-0.009727469,0.011807502,0.0,0.00071888004,0.012116538,-0.0075455126,-0.09229736,-0.012440832,-0.0016819163,-0.02094555,0.03317131,0.020784434,0.053571533,-0.45614612,0.030788548,-0.0036910593,-0.0029205992,0.00026341993,1.3044062,1.5935279,0.4915395,0.31775007,0.17980205,0.08857927,inf,inf,inf,inf,1,1,1,1,3,1,3,2,2,0,1,1,0,0,0
154632000,154632000,137298000,37.4135339,-121.99656089999999,-0.029942269,-0.028167441,-1.4265294,-0.009727469,0.011807502,0.0,0.002879399,0.013947753,0.01620603,-0.0690091,-0.012440832,-0.0016819163,-0.02094555,0.003714814,0.003777175,0.04694238,-0.45609424,0.030737296,-0.003480353,-0.0029205992,0.00026414654,1.3044062,1.63758,0.5027742,0.32078272,0.18424888,0.08872989,inf,inf,inf,inf,1,1,1,1,3,1,3,2,2,0,1,1,0,0,0
155136000,155136000,137298000,37.4135339,-121.99656089999999,-0.029924618,-0.035425022,-1.4754363,-0.009727469,0.011807502,0.0,-0.0013809259,0.013599382,0.040101312,-0.0583673,-0.012440832,-0.0016819163,-0.02094555,0.012957001,0.007881466,0.06007496,-0.45246887,0.049415745,-0.0032828178,-0.00035309794,0.00026042952,1.3044062,1.686487,0.46915144,0.30825722,0.16981947,0.08548568,inf,inf,inf,inf,1,1,1,1,3,1,3,2,3,0,1,1,0,0,0
155632000,155632000,137298000,37.4135339,-121.99656089999999,-0.024600761,-0.04044717,-1.5131795,-0.009727469,0.011807502,0.0,0.0009223252,0.012249048,0.061195746,-0.047226258,-0.012440832,-0.0016819163,-0.02094555,-0.0023833252,-0.005936246,0.14547537,-0.45287842,0.047141302,-0.0033053306,-0.00035309794,0.00026102053,1.3044062,1.7242302,0.47943765,0.31237316,0.17428337,0.08585612,inf,inf,inf,inf,1,1,1,1,3,1,3,2,3,0,1,1,0,0,0
156136000,156136000,137298000,37.4135339,-121.99656089999999,-0.016152246,-0.04647319,-1.5370879,-0.009727469,0.011807502,0.0,-0.003424309,0.01763458,0.0827331,-0.027953524,-0.012440832,-0.0016819163,-0.02094555,-0.016417217,0.040677857,0.102683894,-0.454706,0.04670405,-0.0029253548,-0.00035309794,0.00026173636,1.3044062,1.7481385,0.49115756,0.3156549,0.17912376,0.08609996,inf,inf,inf,inf,1,1,1,1,3,1,3,2,3,1,1,1,0,0,0
156632000,156632000,137298000,37.4135339,-121.99656089999999,-0.007918851,-0.05083675,-1.5687504,-0.009727469,0.011807502,0.0,-0.008009004,0.018922001,0.09812394,-0.027124248,-0.012440832,-0.0016819163,-0.02094555,-0.0196218,0.017549137,0.10277423,-0.45468524,0.046510696,-0.0025714126,-0.00035309794,0.0002594412,1.3044062,1.779801,0.46113575,0.3037645,0.16694494,0.08324276,inf,inf,inf,inf,1,1,1,1,3,1,3,2,3,1,1,1,0,0,0
157136000,157136000,137298000,37.4135339,-121.99656089999999,-0.0004715065,-0.04890564,-1.5786927,-0.009727469,0.011807502,0.0,-0.011581538,0.024853086,0.11339741,-0.009787411,-0.012440832,-0.0016819163,-0.02094555,0.0053452635,0.029966405,0.07562618,-0.45458946,0.046410397,-0.0022030869,-0.00035309794,0.00026052695,1.3044062,1.7897433,0.4747892,0.30909628,0.17342055,0.08401632,inf,inf,inf,inf,1,1,1,1,3,1,3,2,3,1,1,1,0,0,0
157632000,157632000,137298000,37.4135339,-121.99656089999999,0.010262755,-0.04110157,-1.5826006,-0.009727469,0.011807502,0.0,-0.02062258,0.024660584,0.10562341,-0.013164122,-0.012440832,-0.0016819163,-0.02094555,-0.009457463,-0.02680066,-0.1443969,-0.45283842,0.046343416,3.2843338e-05,-0.00035309794,0.0002614221,1.3044062,1.7936512,0.48820943,0.3126092,0.17924611,0.08443629,inf,inf,inf,inf,1,1,1,1,3,1,3,2,3,1,1,1,0,0,0
158136000,158136000,137298000,37.4135339,-121.99656089999999,0.09641975,-0.09981521,-1.6111795,-0.009727469,0.011807502,0.0,0.48980933,-0.30144724,0.044873383,-0.07501957,-0.012440832,-0.0016819163,-0.02094555,2.031527,-0.7690837,-0.0819154,-0.23095943,0.045406803,0.22007528,-0.00035309794,0.00025874286,1.3044062,1.8222301,0.45983094,0.30174363,0.17508636,0.08182743,inf,inf,inf,inf,1,1,1,1,3,1,3,2,3,1,1,1,0,0,0
158632000,158632000,137298000,37.4135339,-121.99656089999999,0.54016984,-0.30477804,-1.6376007,-0.009727469,0.011807502,0.0,1.2919412,-0.66688776,0.1198377,-0.001562933,-0.012440832,-0.0016819163,-0.02094555,0.68959093,-0.6014887,0.053185035,0.13854992,0.037420623,0.57460386,-0.00035309794,0.00025924935,1.3044062,1.8486513,0.47669354,0.30708772,0.2897921,0.08275455,inf,inf,inf,inf,1,1,1,1,3,1,3,2,3,1,1,1,0,0,0
159136000,159136000,137298000,37.4135339,-121.99656089999999,1.200594,-0.60093796,-1.653791,-0.009727469,0.011807502,0.0,1.3368468,-0.48132384,0.017249126,-0.10711989,-0.012440832,-0.0016819163,-0.02094555,0.660005,1.4991163,-1.1435533,0.57842624,0.016949484,1.0088183,-0.00035309794,0.00025098806,1.3044062,1.8648416,0.45126137,0.29643255,0.21802263,0.08058506,inf,inf,inf,inf,1,1,1,1,3,1,3,2,3,1,1,1,0,0,0
159632000,159632000,137298000,37.4135339,-121.99656089999999,1.9539623,-0.71378493,-1.7192227,-0.009727469,0.011807502,0.0,1.396252,0.012567578,0.05580292,-0.07119172,-0.012440832,-0.0016819163,-0.02094555,-0.62217945,0.7721835,0.16784666,1.028582,0.014430697,1.4586351,-0.00035309794,0.0002373909,1.3044062,1.9302733,0.46567526,0.30130795,0.22447602,0.082366,inf,inf,inf,inf,1,1,1,1,3,1,3,2,3,1,1,1,0,0,0
160136000,160136000,137298000,37.4135339,-121.99656089999999,2.629863,-0.64094216,-1.7467626,-0.009727469,0.011807502,0.0,1.0187503,0.41534498,0.093224265,-0.033919837,-0.012440832,-0.0016819163,-0.02094555,-1.0675557,0.7119443,0.080607824,1.4241809,0.013558259,1.8687034,-0.00035309794,0.00021079465,1.3044062,1.9578133,0.4818202,0.30555302,0.25316843,0.084353566,inf,inf,inf,inf,1,1,1,1,3,1,3,2,3,1,1,1,0,0,0
160632000,160632000,137298000,37.4135339,-121.99656089999999,3.11077,-0.3711218,-1.7688732,-0.009727469,0.011807502,0.0,0.560472,0.69319254,0.11313416,-0.018463777,-0.012440832,-0.0016819163,-0.02094555,-1.1073147,0.41151008,0.061665658,1.8157245,0.013061968,2.2676249,-0.00035309794,0.00017225827,1.3044062,1.9799238,0.49869445,0.3105008,0.2979837,0.086554885,inf,inf,inf,inf,1,1,1,1,3,1,3,2,3,1,1,1,0,0,0
161136000,161136000,137298000,37.4135339,-121.99656089999999,3.3476524,0.08113207,-1.7792709,-0.009727469,0.011807502,0.0,0.12338366,0.880561,0.12474925,-0.008413523,-0.012440832,-0.0016819163,-0.02094555,-0.86255974,0.122909196,0.01542922,2.210909,0.011309254,2.670914,-0.00035309794,9.798519e-05,1.3044062,1.9903215,0.4642558,0.29986665,0.26349562,0.08354406,inf,inf,inf,inf,1,1,1,1,3,1,3,2,3,1,1,1,0,0,0
161632000,161632000,137298000,37.4135339,-121.99656089999999,3.3308978,0.5913676,-1.7775345,-0.009727469,0.011807502,0.0,-0.20032023,0.9418769,0.12992293,0.001441326,-0.012440832,-0.0016819163,-0.02094555,-0.48984864,-0.035616685,0.009500421,2.6027381,0.010569813,3.066695,-0.00035309794,7.496702e-05,1.3044062,1.9885851,0.47786728,0.3032136,0.27217636,0.08384329,inf,inf,inf,inf,1,1,1,1,3,1,3,2,3,1,1,1,0,0,0
162136000,162136000,137298000,37.4135339,-121.99656089999999,3.122575,1.116703,-1.7704057,-0.009727469,0.011807502,0.0,-0.39863023,0.934796,0.12325926,0.0021066773,-0.012440832,-0.0016819163,-0.02094555,-0.13378495,-0.12704247,0.032125037,2.9998462,0.010177015,-2.8162887,-0.00035309794,5.96384e-05,1.3044062,1.9814563,0.49396214,0.30805442,0.27233028,0.08378719,inf,inf,inf,inf,1,1,1,1,3,1,3,2,3,1,1,1,0,0,0
162632000,162632000,137298000,37.4135339,-121.99656089999999,2.8251,1.6175812,-1.7708336,-0.009727469,0.011807502,0.0,-0.4690346,0.9077241,0.1204703,9.808177e-05,-0.012440832,-0.0016819163,-0.02094555,0.041568182,-0.10765161,0.0006575137,-2.8937657,0.010038719,-2.4233081,-0.00035309794,4.9375187e-05,1.3044062,1.9818842,0.5094596,0.31105465,0.26780146,0.0832252,inf,inf,inf,inf,1,1,1,1,3,1,3,2,3,1,1,1,0,0,0
163136000,163136000,137298000,37.4135339,-121.99656089999999,2.4727736,2.1037316,-1.7761137,-0.009727469,0.011807502,0.0,-0.5173798,0.8796032,0.12246808,-0.0013064584,-0.012440832,-0.0016819163,-0.02094555,0.021404412,-0.13250366,0.029077752,-2.618702,0.0099881105,-2.145663,-0.00035309794,3.5246234e-05,1.3044062,1.9871644,0.4703944,0.29984778,0.2223191,0.07967752,inf,inf,inf,inf,1,1,1,1,3,1,3,2,3,1,1,1,0,0,0
163632000,163632000,137298000,37.4135339,-121.99656089999999,2.111601,2.535127,-1.7786903,-0.009727469,0.011807502,0.0,-0.5664164,0.8214514,0.12174299,-0.002987248,-0.012440832,-0.0016819163,-0.02094555,-0.04334177,-0.16270094,0.03571063,-2.452636,0.009913005,-1.9782119,-0.00035309794,3.1754946e-05,1.3044062,1.989741,0.4826761,0.30259192,0.22194846,0.07966163,inf,inf,inf,inf,1,1,1,1,3,1,3,2,3,1,1,1,0,0,0
164136000,164136000,137298000,37.4135339,-121.99656089999999,1.7462035,2.9322495,-1.7801039,-0.009727469,0.011807502,0.0,-0.6287307,0.74744344,0.12541096,0.0011062566,-0.012440832,-0.0016819163,-0.02094555,-0.08531828,-0.20854652,0.04235841,-2.2934813,0.00979233,-1.8186115,-0.00035309794,2.9436103e-05,1.3044062,1.9911546,0.4961607,0.30681315,0.22207534,0.07998396,inf,inf,inf,inf,1,1,1,1,3,1,3,2,3,1,1,1,0,0,0
164632000,164632000,137298000,37.4135339,-121.99656089999999,1.3750844,3.2885299,-1.7848352,-0.009727469,0.011807502,0.0,-0.710137,0.645622,0.13077028,0.0037070466,-0.012440832,-0.0016819163,-0.02094555,-0.16647857,-0.2596545,0.0054510306,-2.1431105,0.009656804,-1.669417,-0.00035309794,2.7966114e-05,1.3044062,1.9958858,0.5087046,0.3093521,0.22077094,0.08016086,inf,inf,inf,inf,1,1,1,1,3,1,3,2,3,1,1,1,0,0,0
165136000,165136000,137298000,37.4135339,-121.99656089999999,0.9588249,3.5880282,-1.7967802,-0.009727469,0.011807502,0.0,-0.80239797,0.50637925,0.13854781,0.0016777888,-0.012440832,-0.0016819163,-0.02094555,-0.13530762,-0.3226726,0.011669471,-1.9992319,0.00943306,-1.5261568,-0.00035309794,2.4558221e-05,1.3044062,2.0078309,0.47170135,0.29830167,0.1922484,0.07773912,inf,inf,inf,inf,1,1,1,1,3,1,3,2,3,1,1,1,0,0,0
165632000,165632000,137298000,37.4135339,-121.99656089999999,0.5223162,3.793271,-1.8040569,-0.009727469,0.011807502,0.0,-0.872883,0.3456474,0.14208262,-0.0010592248,-0.012440832,-0.0016819163,-0.02094555,-0.08787919,-0.2995401,0.06644427,-1.8649997,0.009361731,-1.3912781,-0.00035309794,2.467764e-05,1.3044062,2.0151076,0.48239356,0.30085465,0.19232959,0.07809428,inf,inf,inf,inf,1,1,1,1,3,1,3,2,3,1,1,1,0,0,0
166136000,166136000,137298000,37.4135339,-121.99656089999999,0.0526192,3.914303,-1.8116484,-0.009727469,0.011807502,0.0,-0.9154912,0.1907568,0.15355308,0.004811756,-0.012440832,-0.0016819163,-0.02094555,-0.043012083,-0.257204,0.058598813,-1.7335031,0.009304733,-1.2585177,-0.00035309794,2.5151105e-05,1.3044062,2.0226989,0.49418762,0.30499107,0.19323574,0.07867795,inf,inf,inf,inf,1,1,1,1,3,1,3,2,3,1,1,1,0,0,0
166632000,166632000,137298000,37.4135339,-121.99656089999999,-0.41237104,3.955201,-1.816041,-0.009727469,0.011807502,0.0,-0.9279354,0.057761174,0.1618891,0.009886024,-0.012440832,-0.0016819163,-0.02094555,0.002803106,-0.2377608,0.043869946,-1.6047413,0.00925574,-1.1286861,-0.00035309794,2.582161e-05,1.3044062,2.0270915,0.5051993,0.3086761,0.19408312,0.07918034,inf,inf,inf,inf,1,1,1,1,3,1,3,2,3,1,1,1,0,0,0
167136000,167136000,137298000,37.4135339,-121.99656089999999,-0.893852,3.9259844,-1.8247555,-0.009727469,0.011807502,0.0,-0.9262065,-0.05974451,0.16297214,0.0023598946,-0.012440832,-0.0016819163,-0.02094555,0.045087274,-0.18005353,0.04145037,-1.476265,0.009173582,-0.998548,-0.00035309794,2.507069e-05,1.3044062,2.0358062,0.47050977,0.29671195,0.17485648,0.07683036,inf,inf,inf,inf,1,1,1,1,3,1,3,2,3,1,1,1,0,0,0
167632000,167632000,137298000,37.4135339,-121.99656089999999,-1.3502887,3.8480327,-1.8349122,-0.009727469,0.011807502,0.0,-0.90409935,-0.16692601,0.17206761,0.0025117802,-0.012440832,-0.0016819163,-0.02094555,0.05954396,-0.22845228,0.098727636,-1.3482445,0.009146082,-0.8696025,-0.00035309794,2.6103036e-05,1.3044062,2.0459628,0.48038614,0.30034238,0.17701072,0.07739598,inf,inf,inf,inf,1,1,1,1,3,1,3,2,3,1,1,1,0,0,0
168136000,168136000,137298000,37.4135339,-121.99656089999999,-1.790984,3.7147033,-1.8417579,-0.009727469,0.011807502,0.0,-0.868464,-0.27338412,0.18209873,0.0070268954,-0.012440832,-0.0016819163,-0.02094555,0.064181745,-0.1880702,0.044557262,-1.2211237,0.009125092,-0.74184006,-0.00035309794,2.723643e-05,1.3044062,2.0528085,0.4912945,0.30329067,0.17983109,0.07787527,inf,inf,inf,inf,1,1,1,1,3,1,3,2,3,1,1,1,0,0,0
168632000,168632000,137298000,37.4135339,-121.99656089999999,-2.2065415,3.529526,-1.8493552,-0.009727469,0.011807502,0.0,-0.82631177,-0.37382147,0.19297759,0.0116137555,-0.012440832,-0.0016819163,-0.02094555,0.087572694,-0.16196266,0.0336701,-1.0975543,0.009108109,-0.61761,-0.00035309794,2.8365845e-05,1.3044062,2.0604057,0.5016325,0.3058438,0.18271619,0.078288466,inf,inf,inf,inf,1,1,1,1,3,1,3,2,3,1,1,1,0,0,0
169136000,169136000,137298000,37.4135339,-121.99656089999999,-2.6119173,3.2776346,-1.864361,-0.009727469,0.011807502,0.0,-0.7750006,-0.47105125,0.19856355,0.0030426872,-0.012440832,-0.0016819163,-0.02094555,0.0913808,-0.111381456,0.09294319,-0.97037935,0.009082817,-0.48928526,-0.00035309794,2.7968093e-05,1.3044062,2.0754118,0.46858573,0.29441124,0.16796528,0.07611913,inf,inf,inf,inf,1,1,1,1,3,1,3,2,3,1,1,1,0,0,0
169632000,169632000,137298000,37.4135339,-121.99656089999999,-2.978752,2.989845,-1.8737024,-0.009727469,0.011807502,0.0,-0.7118184,-0.5618036,0.20849763,0.004356329,-0.012440832,-0.0016819163,-0.02094555,0.1390929,-0.16057666,0.092980444,-0.8422777,0.009073007,-0.3606787,-0.00035309794,2.9054445e-05,1.3044062,2.084753,0.47799706,0.2981087,0.17172994,0.07672782,inf,inf,inf,inf,1,1,1,1,3,1,3,2,3,1,1,1,0,0,0
170136000,170136000,137298000,37.4135339,-121.99656089999999,-3.314278,2.6548843,-1.8802938,-0.009727469,0.011807502,0.0,-0.6331229,-0.64552236,0.21935993,0.009482654,-0.012440832,-0.0016819163,-0.02094555,0.17501475,-0.13955905,0.09463168,-0.7132976,0.009062152,-0.23033336,-0.00035309794,3.0142255e-05,1.3044062,2.0913444,0.48871168,0.30115867,0.17625682,0.077252746,inf,inf,inf,inf,1,1,1,1,3,1,3,2,3,1,1,1,0,0,0
170632000,170632000,137298000,37.4135339,-121.99656089999999,-3.5948236,2.2901752,-1.8829116,-0.009727469,0.011807502,0.0,-0.54367554,-0.71702796,0.22903012,0.016661437,-0.012440832,-0.0016819163,-0.02094555,0.13183644,-0.10806729,0.044277865,-0.5851629,0.009048886,-0.101556435,-0.00035309794,3.1127725e-05,1.3044062,2.0939622,0.49908322,0.3049177,0.1807211,0.07784077,inf,inf,inf,inf,1,1,1,1,3,1,3,2,3,1,1,1,0,0,0
171136000,171136000,137298000,37.4135339,-121.99656089999999,-3.8297346,1.8906022,-1.8992118,-0.009727469,0.011807502,0.0,-0.4457133,-0.78007954,0.23152709,0.003493954,-0.012440832,-0.0016819163,-0.02094555,0.1917585,-0.124435924,0.044698823,-0.45723206,0.009022768,0.026763953,-0.00035309794,3.0262685e-05,1.3044062,2.1102624,0.46711606,0.29366398,0.16775298,0.075734206,inf,inf,inf,inf,1,1,1,1,3,1,3,2,3,1,1,1,0,0,0
171632000,171632000,137298000,37.4135339,-121.99656089999999,-4.007779,1.4766972,-1.9088706,-0.009727469,0.011807502,0.0,-0.33925134,-0.82851696,0.24256904,0.005741623,-0.012440832,-0.0016819163,-0.02094555,0.22200334,-0.06582291,0.11224113,-0.3330884,0.009001137,0.15131915,-0.00035309794,3.104795e-05,1.3044062,2.1199212,0.4766901,0.29734093,0.17244768,0.07634136,inf,inf,inf,inf,1,1,1,1,3,1,3,2,3,1,1,1,0,0,0
172136000,172136000,137298000,37.4135339,-121.99656089999999,-4.1389756,1.0383936,-1.9128572,-0.009727469,0.011807502,0.0,-0.23224777,-0.8659266,0.2536339,0.013606106,-0.012440832,-0.0016819163,-0.02094555,0.2317558,-0.052202694,0.069094814,-0.20780513,0.008975814,0.27667868,-0.00035309794,3.1818407e-05,1.3044062,2.1239078,0.48769763,0.30038142,0.17769058,0.07686668,inf,inf,inf,inf,1,1,1,1,3,1,3,2,3,1,1,1,0,0,0
172632000,172632000,137298000,37.4135339,-121.99656089999999,-4.2121825,0.59142715,-1.913641,-0.009727469,0.011807502,0.0,-0.119128995,-0.8907193,0.26205248,0.021108378,-0.012440832,-0.0016819163,-0.02094555,0.21626814,-0.025498359,0.07544271,-0.084663935,0.008945833,0.3999049,-0.00035309794,3.2489632e-05,1.3044062,2.1246915,0.4984656,0.30411986,0.182673,0.07745251,inf,inf,inf,inf,1,1,1,1,3,1,3,2,3,1,1,1,0,0,0
173136000,173136000,137298000,37.4135339,-121.99656089999999,-4.2180347,0.124963865,-1.9280065,-0.009727469,0.011807502,0.0,-0.0021037734,-0.90286434,0.25866026,0.0028261999,-0.012440832,-0.0016819163,-0.02094555,0.21553884,0.027432716,0.016329808,0.041853767,0.008887546,0.52643156,-0.00035309794,3.1094558e-05,1.3044062,2.1390572,0.46656564,0.29396486,0.16937333,0.07549569,inf,inf,inf,inf,1,1,1,1,3,1,3,2,3,1,1,1,0,0,0
173632000,173632000,137298000,37.4135339,-121.99656089999999,-4.1675735,-0.31668636,-1.937524,-0.009727469,0.011807502,0.0,0.108384736,-0.8906957,0.2716916,0.007922364,-0.012440832,-0.0016819163,-0.02094555,0.18081813,0.045025486,0.111733556,0.16594668,0.008849052,0.65006214,-0.00035309794,3.1643453e-05,1.3044062,2.1485746,0.47646463,0.29655173,0.17404811,0.075962305,inf,inf,inf,inf,1,1,1,1,3,1,3,2,3,1,1,1,0,0,0
174136000,174136000,137298000,37.4135339,-121.99656089999999,-4.0609946,-0.75578356,-1.9389747,-0.009727469,0.011807502,0.0,0.21255122,-0.8699177,0.27901676,0.013380969,-0.012440832,-0.0016819163,-0.02094555,0.16024809,0.042762417,0.0834614,0.2896406,0.0088096615,0.7731013,-0.00035309794,3.221214e-05,1.3044062,2.1500254,0.4878156,0.30062345,0.17913978,0.07661402,inf,inf,inf,inf,1,1,1,1,3,1,3,2,3,1,1,1,0,0,0
174632000,174632000,137298000,37.4135339,-121.99656089999999,-3.9059536,-1.1767524,-1.9668686,-0.009727469,0.011807502,0.0,0.31188256,-0.83884513,0.29146284,1.5163794e-05,-0.012440832,-0.0016819163,-0.02094555,0.16020454,0.05912453,0.15456136,0.41168964,0.008744352,0.89467484,-0.00035309794,3.0965977e-05,1.3044062,2.1779194,0.45896658,0.2899,0.16736463,0.07471931,inf,inf,inf,inf,1,1,1,1,3,1,3,2,3,1,1,1,0,0,0
175136000,175136000,137298000,37.4135339,-121.99656089999999,-3.7024283,-1.5858436,-1.9613925,-0.009727469,0.011807502,0.0,0.40763494,-0.7975421,0.3063513,0.020306287,-0.012440832,-0.0016819163,-0.02094555,0.139101,0.118669346,0.024526378,0.53655887,0.00870585,1.019215,-0.00035309794,3.17545e-05,1.3044062,2.1724432,0.47214022,0.2946912,0.17394188,0.07562198,inf,inf,inf,inf,1,1,1,1,3,1,3,2,3,1,1,1,0,0,0
175632000,175632000,137298000,37.4135339,-121.99656089999999,-3.4525251,-1.960055,-1.9499987,-0.009727469,0.011807502,0.0,0.5037031,-0.7392735,0.30227262,0.025129799,-0.012440832,-0.0016819163,-0.02094555,0.15483144,0.1300895,0.009156763,0.6600185,0.008665819,1.1424273,-0.00035309794,3.2420918e-05,1.3044062,2.1610494,0.4852,0.29907328,0.17982405,0.076395474,inf,inf,inf,inf,1,1,1,1,3,1,3,2,3,1,1,1,0,0,0
176136000,176136000,137298000,37.4135339,-121.99656089999999,-3.148779,-2.3029618,-1.9556916,-0.009727469,0.011807502,0.0,0.5895293,-0.6657369,0.29145142,0.00677518,-0.012440832,-0.0016819163,-0.02094555,0.1461306,0.13428588,0.092023976,0.7860656,0.008601652,1.2679247,-0.00035309794,3.1052856e-05,1.3044062,2.1667423,0.4577419,0.28914154,0.16769992,0.07458217,inf,inf,inf,inf,1,1,1,1,3,1,3,2,3,1,1,1,0,0,0
176632000,176632000,137298000,37.4135339,-121.99656089999999,-2.8124132,-2.5979717,-1.9633858,-0.009727469,0.011807502,0.0,0.66953474,-0.5837147,0.2953673,0.0036947597,-0.012440832,-0.0016819163,-0.02094555,0.1253875,0.19879907,0.115936615,0.909143,0.008565599,1.3905561,-0.00035309794,3.158069e-05,1.3044062,2.1744366,0.469213,0.29328394,0.17248902,0.07528564,inf,inf,inf,inf,1,1,1,1,3,1,3,2,3,1,1,1,0,0,0
177136000,177136000,137298000,37.4135339,-121.99656089999999,-2.4320743,-2.8591552,-1.9690232,-0.009727469,0.011807502,0.0,0.736741,-0.5018212,0.30887786,0.012706144,-0.012440832,-0.0016819163,-0.02094555,0.13106425,0.17830041,0.1308089,1.0342938,0.0085310405,1.515618,-0.00035309794,3.213447e-05,1.3044062,2.1800737,0.4819933,0.29675415,0.17749195,0.07588242,inf,inf,inf,inf,1,1,1,1,3,1,3,2,3,1,1,1,0,0,0
177632000,177632000,137298000,37.4135339,-121.99656089999999,-2.0327113,-3.0799384,-1.9706205,-0.009727469,0.011807502,0.0,0.7947775,-0.40986487,0.31764457,0.020228624,-0.012440832,-0.0016819163,-0.02094555,0.07249077,0.19969432,0.04378706,1.1594992,0.008496416,1.6408821,-0.00035309794,3.263542e-05,1.3044062,2.1816711,0.49429083,0.30080372,0.18193747,0.076507695,inf,inf,inf,inf,1,1,1,1,3,1,3,2,3,1,1,1,0,0,0
178136000,178136000,137298000,37.4135339,-121.99656089999999,-1.5907711,-3.2559123,-1.9880742,-0.009727469,0.011807502,0.0,0.8455937,-0.29911497,0.3187322,0.0041380664,-0.012440832,-0.0016819163,-0.02094555,0.04722329,0.25465572,0.06488524,1.2882694,0.008443724,1.7693851,-0.00035309794,3.1121766e-05,1.3044062,2.1991248,0.46367657,0.29133594,0.16808137,0.07467495,inf,inf,inf,inf,1,1,1,1,3,1,3,2,3,1,1,1,0,0,0
178632000,178632000,137298000,37.4135339,-121.99656089999999,-1.142941,-3.3713937,-1.9977738,-0.009727469,0.011807502,0.0,0.8794356,-0.18084653,0.33036238,0.00736065,-0.012440832,-0.0016819163,-0.02094555,0.026866063,0.28713223,0.14168489,1.4148793,0.008416102,1.8964165,-0.00035309794,3.160558e-05,1.3044062,2.2088244,0.4744444,0.29418415,0.17210017,0.07517232,inf,inf,inf,inf,1,1,1,1,3,1,3,2,3,1,1,1,0,0,0
179136000,179136000,137298000,37.4135339,-121.99656089999999,-0.68213356,-3.4258373,-1.9989586,-0.009727469,0.011807502,0.0,0.8939641,-0.05386015,0.33904102,0.014601898,-0.012440832,-0.0016819163,-0.02094555,-0.0073457775,0.27848503,0.09769666,1.5427455,0.008391435,2.024494,-0.00035309794,3.2127748e-05,1.3044062,2.210009,0.48643842,0.29844484,0.17652258,0.07584098,inf,inf,inf,inf,1,1,1,1,3,1,3,2,3,1,1,1,0,0,0
179632000,179632000,137298000,37.4135339,-121.99656089999999,-0.22710311,-3.4181702,-1.9949188,-0.009727469,0.011807502,0.0,0.8938258,0.067738876,0.3445479,0.023445785,-0.012440832,-0.0016819163,-0.02094555,0.012338975,0.24928305,0.031820495,1.6663871,0.008368878,2.1487002,-0.00035309794,3.2606567e-05,1.3044062,2.2059693,0.49790278,0.30226496,0.18057574,0.0764235,inf,inf,inf,inf,1,1,1,1,3,1,3,2,3,1,1,1,0,0,0
180136000,180136000,137298000,37.4135339,-121.99656089999999,0.24002396,-3.353487,-2.0084786,-0.009727469,0.011807502,0.0,0.88142437,0.18495882,0.3428867,0.0075748004,-0.012440832,-0.0016819163,-0.02094555,-0.088735044,0.23476851,0.09083002,1.7925518,0.008335861,2.2757397,-0.00035309794,3.1108655e-05,1.3044062,2.2195292,0.46608335,0.29142603,0.1668083,0.07442813,inf,inf,inf,inf,1,1,1,1,3,1,3,2,3,1,1,1,0,0,0
180632000,180632000,137298000,37.4135339,-121.99656089999999,0.6839544,-3.2311807,-2.019681,-0.009727469,0.011807502,0.0,0.8505303,0.2994544,0.3507349,0.0052525736,-0.012440832,-0.0016819163,-0.02094555,-0.0770864,0.2350587,0.12010149,1.917807,0.008316525,2.4021327,-0.00035309794,3.1596617e-05,1.3044062,2.2307315,0.47630054,0.2950835,0.17075305,0.07502391,inf,inf,inf,inf,1,1,1,1,3,1,3,2,3,1,1,1,0,0,0
181136000,181136000,137298000,37.4135339,-121.99656089999999,1.1054583,-3.0540314,-2.026504,-0.009727469,0.011807502,0.0,0.80258363,0.4076823,0.36509493,0.014315663,-0.012440832,-0.0016819163,-0.02094555,-0.11625946,0.23440686,0.12885405,2.043346,0.008299205,2.5286486,-0.00035309794,3.213044e-05,1.3044062,2.2375546,0.48777333,0.29916576,0.17507967,0.07567299,inf,inf,inf,inf,1,1,1,1,3,1,3,2,3,1,1,1,0,0,0
181632000,181632000,137298000,37.4135339,-121.99656089999999,1.4928,-2.8248763,-2.0256588,-0.009727469,0.011807502,0.0,0.7455809,0.5049393,0.37433347,0.024620228,-0.012440832,-0.0016819163,-0.02094555,-0.13355874,0.18417597,0.03693532,2.1653683,0.008282754,2.6514843,-0.00035309794,3.2629654e-05,1.3044062,2.2367096,0.49877352,0.3017064,0.17907882,0.07610141,inf,inf,inf,inf,1,1,1,1,3,1,3,2,3,1,1,1,0,0,0
182136000,182136000,137298000,37.4135339,-121.99656089999999,1.8589163,-2.539345,-2.038792,-0.009727469,0.011807502,0.0,0.68126583,0.59589076,0.37241763,0.0087676,-0.012440832,-0.0016819163,-0.02094555,-0.1292978,0.16004434,0.09100045,2.2894182,0.008258257,2.7764153,-0.00035309794,3.1178344e-05,1.3044062,2.2498426,0.46671352,0.29182503,0.16563706,0.07425253,inf,inf,inf,inf,1,1,1,1,3,1,3,2,3,1,1,1,0,0,0
182632000,182632000,137298000,37.4135339,-121.99656089999999,2.182235,-2.2196386,-2.0491185,-0.009727469,0.011807502,0.0,0.6098434,0.67135596,0.37990496,0.006969218,-0.012440832,-0.0016819163,-0.02094555,-0.16385901,0.19036406,0.15059485,2.412602,0.008243752,2.9006517,-0.00035309794,3.169376e-05,1.3044062,2.260169,0.47665402,0.29538265,0.16959706,0.07484373,inf,inf,inf,inf,1,1,1,1,3,1,3,2,3,1,1,1,0,0,0
183136000,183136000,137298000,37.4135339,-121.99656089999999,2.4701953,-1.8604895,-2.0491989,-0.009727469,0.011807502,0.0,0.52325255,0.7386889,0.3900282,0.017424628,-0.012440832,-0.0016819163,-0.02094555,-0.21756229,0.14676788,0.108261585,2.5376325,0.008230209,3.0271313,-0.00035309794,3.2258024e-05,1.3044062,2.2602496,0.48788705,0.29829356,0.17393073,0.07535608,inf,inf,inf,inf,1,1,1,1,3,1,3,2,3,1,1,1,0,0,0
183632000,183632000,137298000,37.4135339,-121.99656089999999,2.704019,-1.480289,-2.0469704,-0.009727469,0.011807502,0.0,0.42708617,0.796743,0.39466453,0.02418321,-0.012440832,-0.0016819163,-0.02094555,-0.18711163,0.112451084,0.02402812,2.6600015,0.00821703,-3.1323726,-0.00035309794,3.2783788e-05,1.3044062,2.2580209,0.49869266,0.301857,0.1779377,0.075921394,inf,inf,inf,inf,1,1,1,1,3,1,3,2,3,1,1,1,0,0,0
184136000,184136000,137298000,37.4135339,-121.99656089999999,2.8809986,-1.0650446,-2.0603168,-0.009727469,0.011807502,0.0,0.3251533,0.8433978,0.39163333,0.0072223013,-0.012440832,-0.0016819163,-0.02094555,-0.16012798,0.12016465,0.07493048,2.7831507,0.008198402,-3.0088727,-0.00035309794,3.135771e-05,1.3044062,2.2713675,0.46670058,0.29192382,0.16473328,0.07408883,inf,inf,inf,inf,1,1,1,1,3,1,3,2,3,1,1,1,0,0,0
184632000,184632000,137298000,37.4135339,-121.99656089999999,3.006562,-0.634414,-2.070594,-0.009727469,0.011807502,0.0,0.2248304,0.87651664,0.40105277,0.008043614,-0.012440832,-0.0016819163,-0.02094555,-0.1985456,0.059344452,0.1426367,2.9041586,0.008190761,-2.8869958,-0.00035309794,3.1909898e-05,1.3044062,2.2816448,0.4765295,0.2943997,0.1687079,0.07455576,inf,inf,inf,inf,1,1,1,1,3,1,3,2,3,1,1,1,0,0,0
185136000,185136000,137298000,37.4135339,-121.99656089999999,3.0779495,-0.18796033,-2.069409,-0.009727469,0.011807502,0.0,0.12388912,0.89495134,0.409615,0.018258518,-0.012440832,-0.0016819163,-0.02094555,-0.18569991,0.032317676,0.08380319,3.0277195,0.008180137,-2.7625566,-0.00035309794,3.2506887e-05,1.3044062,2.2804594,0.48779073,0.29836643,0.17315026,0.07521045,inf,inf,inf,inf,1,1,1,1,3,1,3,2,3,1,1,1,0,0,0
185632000,185632000,137298000,37.4135339,-121.99656089999999,3.1046476,0.25273943,-2.0623364,-0.009727469,0.011807502,0.0,0.025307557,0.9048451,0.41108865,0.02580351,-0.012440832,-0.0016819163,-0.02094555,-0.20836286,0.0121050095,0.09061861,-3.1345701,0.008168785,-2.6406446,-0.00035309794,3.3046897e-05,1.3044062,2.273387,0.49851844,0.30190915,0.1771966,0.07577544,inf,inf,inf,inf,1,1,1,1,3,1,3,2,3,1,1,1,0,0,0
186136000,186136000,137298000,37.4135339,-121.99656089999999,3.0815105,0.6964674,-2.0749602,-0.009727469,0.011807502,0.0,-0.08454619,0.90023035,0.39472994,-0.0036992803,-0.012440832,-0.0016819163,-0.02094555,-0.24276014,0.03032453,-0.2225032,-3.0147436,0.008150064,-2.5195777,-0.00035309794,3.162529e-05,1.3044062,2.2860107,0.46660754,0.29095876,0.16416308,0.07383374,inf,inf,inf,inf,1,1,1,1,3,1,3,2,3,1,1,1,0,0,0
186632000,186632000,137298000,37.4135339,-121.99656089999999,3.0335462,1.0808482,-2.1920168,-0.009727469,0.011807502,0.0,-0.012647489,0.49579608,-0.033676345,-0.43594688,-0.012440832,-0.0016819163,-0.02094555,0.19353405,-1.9031098,-0.6315782,-3.038472,0.008139417,-2.5445273,-0.00035309794,3.2188167e-05,1.3044062,2.4030676,0.47641158,0.29443738,0.16981599,0.07440667,inf,inf,inf,inf,1,1,1,1,3,1,3,2,3,1,1,1,0,0,0
187136000,187136000,137298000,37.4135339,-121.99656089999999,3.0381157,1.1550158,-2.4612763,-0.009727469,0.011807502,0.0,0.068359606,-0.21953227,-0.11949235,-0.51303536,-0.012440832,-0.0016819163,-0.02094555,0.1363925,-0.3902585,0.8332841,-3.043427,0.007959855,-2.5509737,-0.00035309794,3.286354e-05,1.3044062,2.672327,0.4878263,0.29835188,0.19355616,0.0750884,inf,inf,inf,inf,1,1,1,1,3,1,3,2,3,1,1,1,0,0,0
187632000,187632000,137298000,37.4135339,-121.99656089999999,3.0907552,1.0874733,-2.6425996,-0.009727469,0.011807502,0.0,0.072103694,-0.16797024,0.07915514,-0.3098857,-0.012440832,-0.0016819163,-0.02094555,-0.16672388,0.0374714,0.06802379,-3.0442686,0.007352167,-2.554183,-0.00035309794,3.3780678e-05,1.3044062,2.85365,0.49925977,0.30076495,0.19327267,0.07552005,inf,inf,inf,inf,1,1,1,1,3,1,3,2,3,1,1,1,0,0,0
188136000,188136000,137298000,37.4135339,-121.99656089999999,3.145365,0.97490597,-2.8115757,-0.009727469,0.011807502,0.0,0.03675329,-0.16384122,0.11180422,-0.28736892,-0.012440832,-0.0016819163,-0.02094555,-0.1169797,0.072099075,0.18261744,-3.0473437,0.006706133,-2.557193,-0.00035309794,3.319207e-05,1.3044062,3.0226264,0.46691862,0.29094762,0.17103256,0.07371237,inf,inf,inf,inf,1,1,1,1,3,1,3,2,3,1,1,1,0,0,0
188632000,188632000,137298000,37.4135339,-121.99656089999999,3.1835003,0.86782205,-2.955401,-0.009727469,0.011807502,0.0,-0.0011844676,-0.1284817,0.16940252,-0.23872839,-0.012440832,-0.0016819163,-0.02094555,-0.108967625,0.09898206,0.23949984,-3.047261,0.006561348,-2.5573,-0.00035309794,3.4727687e-05,1.3044062,3.1664515,0.47705752,0.29442388,0.17126802,0.074291475,inf,inf,inf,inf,1,1,1,1,3,1,3,2,3,1,1,1,0,0,0
189136000,189136000,137298000,37.4135339,-121.99656089999999,3.1975281,0.7759918,-3.0687654,-0.009727469,0.011807502,0.0,-0.03810824,-0.084459186,0.22957076,-0.18010043,-0.012440832,-0.0016819163,-0.02094555,-0.07350511,0.123443946,0.205148,-3.0483484,0.0064780028,-2.557689,-0.00035309794,3.6446738e-05,1.3044062,3.2798162,0.48836157,0.2972741,0.17355092,0.074797146,inf,inf,inf,inf,1,1,1,1,3,1,3,2,3,1,1,1,0,0,0
189632000,189632000,137298000,37.4135339,-121.99656089999999,3.1864152,0.70849156,-3.1548557,-0.009727469,0.011807502,0.0,-0.056356154,-0.040569946,0.27249295,-0.13527502,-0.012440832,-0.0016819163,-0.02094555,0.0037122187,0.13754311,0.12872088,-3.048461,0.0064262096,-2.5567305,-0.00035309794,3.817574e-05,1.3044062,3.3659062,0.4991081,0.3007833,0.17715424,0.0753576,inf,inf,inf,inf,1,1,1,1,3,1,3,2,3,1,1,1,0,0,0
190136000,190136000,137298000,37.4135339,-121.99656089999999,3.175224,0.6468303,-3.24026,-0.009727469,0.011807502,0.0,-0.055961758,-0.0066102613,0.30430043,-0.11730883,-0.012440832,-0.0016819163,-0.02094555,-0.016645975,0.099596664,0.17783138,-3.0486047,0.006340379,-2.5554585,-0.00035309794,3.767713e-05,1.3044062,3.4513106,0.4669826,0.29097736,0.16480915,0.07358028,inf,inf,inf,inf,1,1,1,1,3,1,3,2,3,1,1,1,0,0,0
190632000,190632000,137298000,37.4135339,-121.99656089999999,3.1519248,0.61678964,-3.3046453,-0.009727469,0.011807502,0.0,-0.049629282,0.022738487,0.33691648,-0.09224849,-0.012440832,-0.0016819163,-0.02094555,0.03529313,0.0779264,0.20905396,-3.0486705,0.006284496,-2.554324,-0.00035309794,3.930588e-05,1.3044062,3.515696,0.47678185,0.2934269,0.16999435,0.07405034,inf,inf,inf,inf,1,1,1,1,3,1,3,2,3,1,1,1,0,0,0
191136000,191136000,137298000,37.4135339,-121.99656089999999,3.126081,0.60128284,-3.348752,-0.009727469,0.011807502,0.0,-0.03863238,0.038126696,0.36857986,-0.05997417,-0.012440832,-0.0016819163,-0.02094555,0.050013654,0.028771846,0.14352332,-3.0486815,0.0062184692,-2.5533307,-0.00035309794,4.099004e-05,1.3044062,3.5598025,0.4880004,0.2973273,0.17583549,0.07469581,inf,inf,inf,inf,1,1,1,1,3,1,3,2,3,1,1,1,0,0,0
191632000,191632000,137298000,37.4135339,-121.99656089999999,3.1101,0.5981143,-3.374533,-0.009727469,0.011807502,0.0,-0.01894568,0.04598827,0.38891408,-0.032583334,-0.012440832,-0.0016819163,-0.02094555,0.020275654,0.02818683,0.09118392,-3.0486355,0.0061450135,-2.5522718,-0.00035309794,4.257581e-05,1.3044062,3.5855837,0.49898896,0.30084816,0.18133141,0.07526621,inf,inf,inf,inf,1,1,1,1,3,1,3,2,3,1,1,1,0,0,0
192136000,192136000,137298000,37.4135339,-121.99656089999999,3.0975485,0.5981008,-3.40556,-0.009727469,0.011807502,0.0,-0.0033015923,0.04682709,0.3932305,-0.03465411,-0.012440832,-0.0016819163,-0.02094555,0.047392093,-0.024671342,0.15353596,-3.048076,0.0059925593,-2.551305,-0.00035309794,4.1372234e-05,1.3044062,3.6166105,0.4668499,0.2900531,0.16849348,0.0733831,inf,inf,inf,inf,1,1,1,1,3,1,3,2,3,1,1,1,0,0,0
192632000,192632000,137298000,37.4135339,-121.99656089999999,3.0893967,0.6071175,-3.4251885,-0.009727469,0.011807502,0.0,0.005648791,0.04146554,0.40216503,-0.02604213,-0.012440832,-0.0016819163,-0.02094555,0.019776737,0.022733724,0.147718,-3.047646,0.0059196264,-2.5513802,-0.00035309794,4.275931e-05,1.3044062,3.636239,0.47696838,0.29351836,0.17341395,0.0739762,inf,inf,inf,inf,1,1,1,1,3,1,3,2,3,1,1,1,0,0,0
193136000,193136000,137298000,37.4135339,-121.99656089999999,3.08426,0.6154568,-3.439485,-0.009727469,0.011807502,0.0,0.0117272455,0.027867297,0.41526547,-0.011344979,-0.012440832,-0.0016819163,-0.02094555,0.0066956272,-0.036132406,0.13160984,-3.0477195,0.0058549657,-2.5516427,-0.00035309794,4.4160715e-05,1.3044062,3.6505356,0.4885706,0.2974312,0.17853563,0.074622534,inf,inf,inf,inf,1,1,1,1,3,1,3,2,3,1,1,1,0,0,0
193632000,193632000,137298000,37.4135339,-121.99656089999999,3.083824,0.616431,-3.4461145,-0.009727469,0.011807502,0.0,0.015537528,0.015204835,0.42672122,0.0044633,-0.012440832,-0.0016819163,-0.02094555,0.03895688,0.0098605845,0.058771107,-3.047687,0.005801359,-2.5518703,-0.00035309794,4.5462984e-05,1.3044062,3.657165,0.4998892,0.299861,0.18325152,0.07505848,inf,inf,inf,inf,1,1,1,1,3,1,3,2,3,1,1,1,0,0,0
194136000,194136000,137298000,37.4135339,-121.99656089999999,3.0809817,0.62083256,-3.4622116,-0.009727469,0.011807502,0.0,0.012967265,0.011400755,0.42385653,-0.006221181,-0.012440832,-0.0016819163,-0.02094555,-0.0102657825,0.00933605,0.093544826,-3.0475006,0.005717425,-2.552319,-0.00035309794,4.3517237e-05,1.3044062,3.6732621,0.46734965,0.29017642,0.16938053,0.07331505,inf,inf,inf,inf,1,1,1,1,3,1,3,2,3,1,1,1,0,0,0
194632000,194632000,137298000,37.4135339,-121.99656089999999,3.0773838,0.6252039,-3.4690385,-0.009727469,0.011807502,0.0,0.010016048,0.0039517554,0.42869598,-0.0015771855,-0.012440832,-0.0016819163,-0.02094555,0.0062693814,-0.029233698,0.1193257,-3.0472775,0.005685974,-2.5527225,-0.00035309794,4.452894e-05,1.3044062,3.680089,0.47763735,0.29365078,0.17385131,0.07390787,inf,inf,inf,inf,1,1,1,1,3,1,3,2,3,1,1,1,0,0,0
195136000,195136000,137298000,37.4135339,-121.99656089999999,3.0740523,0.62845033,-3.4680648,-0.009727469,0.011807502,0.0,0.011061292,-0.002143161,0.4314358,0.007269766,-0.012440832,-0.0016819163,-0.02094555,-0.0059200954,-0.021543786,0.10887067,-3.047276,0.0056611802,-2.5535133,-0.00035309794,4.553402e-05,1.3044062,3.6791153,0.48935392,0.2965048,0.17876638,0.07442461,inf,inf,inf,inf,1,1,1,1,3,1,3,2,3,1,1,1,0,0,0
195632000,195632000,137298000,37.4135339,-121.99656089999999,3.0696375,0.63528335,-3.4868445,-0.009727469,0.011807502,0.0,0.011516515,-0.0049332967,0.43565303,-0.0019044848,-0.012440832,-0.0016819163,-0.02094555,0.010133773,-0.019013105,0.20485184,-3.0472534,0.005627844,-2.5542302,-0.00035309794,4.354681e-05,1.3044062,3.697895,0.45992884,0.2871986,0.16677207,0.0728345,inf,inf,inf,inf,1,1,1,1,3,1,3,2,3,1,1,1,0,0,0
196136000,196136000,137298000,37.4135339,-121.99656089999999,3.0688467,0.63745785,-3.4727116,-0.009727469,0.011807502,0.0,0.01726063,-0.016331498,0.44089755,0.018842977,-0.012440832,-0.0016819163,-0.02094555,0.04462892,-0.024891846,0.07859803,-3.0473814,0.005615303,-2.5551288,-0.00035309794,4.4744866e-05,1.3044062,3.683762,0.4735105,0.29177007,0.17323093,0.07370401,inf,inf,inf,inf,1,1,1,1,3,1,3,2,3,1,1,1,0,0,0
196632000,196632000,137298000,37.4135339,-121.99656089999999,3.0746028,0.6344566,-3.453622,-0.009727469,0.011807502,0.0,0.01757458,-0.022802727,0.424323,0.019903304,-0.012440832,-0.0016819163,-0.02094555,0.021136666,-0.042377006,0.034805384,-3.047673,0.005604596,-2.5557168,-0.00035309794,4.570957e-05,1.3044062,3.6646729,0.48688295,0.29491162,0.17912923,0.074325904,inf,inf,inf,inf,1,1,1,1,3,1,3,2,3,1,1,1,0,0,0
197136000,197136000,137298000,37.4135339,-121.99656089999999,3.0795686,0.63502496,-3.4457068,-0.009727469,0.011807502,0.0,0.011300003,-0.023773104,0.4045208,0.0071513187,-0.012440832,-0.0016819163,-0.02094555,-0.012454858,-0.007409893,0.049270686,-3.04766,0.005591572,-2.5560033,-0.00035309794,4.3269018e-05,1.3044062,3.6567574,0.45879918,0.28637126,0.16700289,0.07280202,inf,inf,inf,inf,1,1,1,1,3,1,3,2,3,1,1,1,0,0,0
197632000,197632000,137298000,37.4135339,-121.99656089999999,3.083391,0.63721275,-3.4381056,-0.009727469,0.011807502,0.0,0.009040277,-0.024590608,0.3946355,0.0052298317,-0.012440832,-0.0016819163,-0.02094555,0.0054725446,-0.033078995,0.09904522,-3.047552,0.0055854004,-2.556571,-0.00035309794,4.3879838e-05,1.3044062,3.649156,0.47048074,0.290352,0.17185491,0.07348726,inf,inf,inf,inf,1,1,1,1,3,1,3,2,3,1,1,1,0,0,0
198136000,198136000,137298000,37.4135339,-121.99656089999999,3.0991614,0.65200925,-3.430704,-0.009727469,0.011807502,0.0,0.014149283,-0.026704248,0.31593722,-0.06412916,-0.012440832,-0.0016819163,-0.02094555,-0.008999813,-0.095434934,-2.4212103,-3.046127,0.005580048,-2.5558681,-0.00035309794,4.4488792e-05,1.3044062,3.6417546,0.48347303,0.29369795,0.17691942,0.07407613,inf,inf,inf,inf,1,1,1,1,3,1,3,2,3,1,1,1,0,0,0
198632000,198632000,137298000,37.4135339,-121.99656089999999,3.0289147,0.8087111,-3.5767155,-0.009727469,0.011807502,0.0,-0.34005073,0.5221459,0.0985151,-0.2698079,-0.012440832,-0.0016819163,-0.02094555,-0.3997961,0.5914547,0.36121064,-2.908199,0.005570158,-2.4213994,-0.00035309794,4.4958586e-05,1.3044062,3.787766,0.49615082,0.2976213,0.18578215,0.074716486,inf,inf,inf,inf,1,1,1,1,3,1,3,2,3,1,1,1,0,0,0
