timestamp,timestamp_sample,q[0],q[1],q[2],q[3],delta_q_reset[0],delta_q_reset[1],delta_q_reset[2],delta_q_reset[3],quat_reset_counter
127404000,127404000,0.9999632,-0.008036501,0.0027977803,-0.0011045515,1.0,0.0,0.0,0.0,0
127656000,127656000,0.99995756,-0.008000438,0.0043927236,-0.0012456939,1.0,0.0,0.0,0.0,0
128156000,128156000,0.9733645,-0.0068623694,0.006307172,-0.22907372,0.97383934,1.7189448e-10,-7.1395323e-10,-0.22723769,1
128656000,128656000,0.97359806,-0.0070579047,0.006141703,-0.22807766,0.97383934,1.7189448e-10,-7.1395323e-10,-0.22723769,1
129156000,129156000,0.9734545,-0.007233988,0.0059139743,-0.2286903,0.97383934,1.7189448e-10,-7.1395323e-10,-0.22723769,1
129656000,129656000,0.9734886,-0.007089856,0.005562406,-0.22855812,0.97383934,1.7189448e-10,-7.1395323e-10,-0.22723769,1
130156000,130156000,0.9735907,-0.006815532,0.0054112426,-0.22813503,0.97383934,1.7189448e-10,-7.1395323e-10,-0.22723769,1
130656000,130656000,0.97360384,-0.00734983,0.0051297094,-0.22806883,0.97383934,1.7189448e-10,-7.1395323e-10,-0.22723769,1
131156000,131156000,0.9735951,-0.007314415,0.005333438,-0.2281023,0.97383934,1.7189448e-10,-7.1395323e-10,-0.22723769,1
131656000,131656000,0.9735453,-0.006802902,0.005524118,-0.22832628,0.97383934,1.7189448e-10,-7.1395323e-10,-0.22723769,1
132156000,132156000,0.97363424,-0.0070782653,0.0054913564,-0.22793892,0.97383934,1.7189448e-10,-7.1395323e-10,-0.22723769,1
132656000,132656000,0.97334766,-0.0066163153,0.0055661267,-0.2291719,0.999999,-1.3969841e-09,8.1490736e-10,-0.001460299,2
133156000,133156000,0.9734047,-0.0067107687,0.005473405,-0.22892843,0.999999,-1.3969841e-09,8.1490736e-10,-0.001460299,2
133656000,133656000,0.9735014,-0.0069105173,0.0054032207,-0.22851273,0.999999,-1.3969841e-09,8.1490736e-10,-0.001460299,2
134156000,134156000,0.97357273,-0.0067347623,0.005415243,-0.22821388,0.999999,-1.3969841e-09,8.1490736e-10,-0.001460299,2
134656000,134656000,0.9736408,-0.005916628,0.0060379906,-0.22793025,0.999999,-1.3969841e-09,8.1490736e-10,-0.001460299,2
135156000,135156000,0.9736564,-0.006411931,0.0055584973,-0.22786263,0.999999,-1.3969841e-09,8.1490736e-10,-0.001460299,2
135656000,135656000,0.97368014,-0.0063549853,0.005473406,-0.22776422,0.999999,-1.3969841e-09,8.1490736e-10,-0.001460299,2
136156000,136156000,0.97369266,-0.0052844835,0.0062157707,-0.22771963,0.999999,-1.3969841e-09,8.1490736e-10,-0.001460299,2
136656000,136656000,0.97364813,-0.006230313,0.005732774,-0.22789851,0.999999,-1.3969841e-09,8.1490736e-10,-0.001460299,2
137156000,137156000,0.9736465,-0.005980862,0.0057257297,-0.2279124,0.999999,-1.3969841e-09,8.1490736e-10,-0.001460299,2
137656000,137656000,0.9735918,-0.0060082353,0.0058436613,-0.22814201,0.999999,-1.3969841e-09,8.1490736e-10,-0.001460299,2
138156000,138156000,0.973566,-0.005733384,0.0059745633,-0.22825624,0.999999,-1.3969841e-09,8.1490736e-10,-0.001460299,2
138656000,138656000,0.9735353,-0.005972602,0.0058069406,-0.22838515,0.999999,-1.3969841e-09,8.1490736e-10,-0.001460299,2
139156000,139156000,0.9735412,-0.006021584,0.0056677856,-0.22836204,0.999999,-1.3969841e-09,8.1490736e-10,-0.001460299,2
139656000,139656000,0.9735195,-0.0060462127,0.005876571,-0.22844864,0.999999,-1.3969841e-09,8.1490736e-10,-0.001460299,2
140156000,140156000,0.97352177,-0.0061446493,0.0057716276,-0.22843924,0.999999,-1.3969841e-09,8.1490736e-10,-0.001460299,2
140656000,140656000,0.9735401,-0.006016403,0.0062677218,-0.22835132,0.999999,-1.3969841e-09,8.1490736e-10,-0.001460299,2
141156000,141156000,0.9735443,-0.005940256,0.0062158974,-0.22833684,0.999999,-1.3969841e-09,8.1490736e-10,-0.001460299,2
141656000,141656000,0.9735066,-0.0060383026,0.0063608103,-0.22849032,0.999999,-1.3969841e-09,8.1490736e-10,-0.001460299,2
142156000,142156000,0.9735287,-0.0059636203,0.006658005,-0.22839037,0.999999,-1.3969841e-09,8.1490736e-10,-0.001460299,2
142656000,142656000,0.97358084,-0.0060023507,0.0070009152,-0.22815691,0.999999,-1.3969841e-09,8.1490736e-10,-0.001460299,2
143156000,143156000,0.9736568,-0.005947003,0.0070694042,-0.22783162,0.999999,-1.3969841e-09,8.1490736e-10,-0.001460299,2
143656000,143656000,0.97370493,-0.0060850093,0.007225556,-0.22761744,0.999999,-1.3969841e-09,8.1490736e-10,-0.001460299,2
144156000,144156000,0.9737304,-0.005786692,0.0073020756,-0.22751345,0.999999,-1.3969841e-09,8.1490736e-10,-0.001460299,2
144656000,144656000,0.9737739,-0.005775685,0.0075429543,-0.22731955,0.999999,-1.3969841e-09,8.1490736e-10,-0.001460299,2
145156000,145156000,0.9738218,-0.005767911,0.007518606,-0.22711557,0.999999,-1.3969841e-09,8.1490736e-10,-0.001460299,2
145656000,145656000,0.97379935,-0.0046976916,0.00807113,-0.22721718,0.999999,-1.3969841e-09,8.1490736e-10,-0.001460299,2
146156000,146156000,0.97381073,-0.004885021,0.00819424,-0.22716016,0.999999,-1.3969841e-09,8.1490736e-10,-0.001460299,2
146656000,146656000,0.9738571,-0.004232967,0.008537629,-0.2269617,0.999999,-1.3969841e-09,8.1490736e-10,-0.001460299,2
147156000,147156000,0.9739137,-0.0048724925,0.008236998,-0.22671713,0.999999,-1.3969841e-09,8.1490736e-10,-0.001460299,2
147656000,147656000,0.97393745,-0.0043054414,0.0086034015,-0.22661273,0.999999,-1.3969841e-09,8.1490736e-10,-0.001460299,2
148156000,148156000,0.97394055,-0.0035433888,0.008169452,-0.22662894,0.999999,-1.3969841e-09,8.1490736e-10,-0.001460299,2
148656000,148656000,0.9717342,0.0114196865,-0.025684705,-0.23439826,0.999999,-1.3969841e-09,8.1490736e-10,-0.001460299,2
149156000,149156000,0.9724652,-0.0048168185,0.0036100806,-0.23297039,0.999999,-1.3969841e-09,8.1490736e-10,-0.001460299,2
149656000,149656000,0.97303385,-0.008851628,0.007554409,-0.23036852,0.999999,-1.3969841e-09,8.1490736e-10,-0.001460299,2
150156000,150156000,0.9732375,-0.00849891,0.008060138,-0.22950281,0.999999,-1.3969841e-09,8.1490736e-10,-0.001460299,2
150656000,150656000,0.9734821,-0.006552345,0.0050145662,-0.22861451,0.999999,-1.3969841e-09,8.1490736e-10,-0.001460299,2
151156000,151156000,0.97380424,-0.0029930533,0.00114546,-0.22736593,0.999999,-1.3969841e-09,8.1490736e-10,-0.001460299,2
151656000,151656000,0.9740073,-0.0015971693,-0.00097263174,-0.22650903,0.999999,-1.3969841e-09,8.1490736e-10,-0.001460299,2
152156000,152156000,0.97400945,-0.0014753384,-0.0025398985,-0.22648825,0.999999,-1.3969841e-09,8.1490736e-10,-0.001460299,2
152656000,152656000,0.9740703,-0.0015772913,-0.0030901104,-0.22621901,0.999999,-1.3969841e-09,8.1490736e-10,-0.001460299,2
153156000,153156000,0.97409725,-0.0022722695,-0.0019785063,-0.22610961,0.999999,-1.3969841e-09,8.1490736e-10,-0.001460299,2
153656000,153656000,0.9741178,-0.0028958623,-0.0015317663,-0.2260176,0.999999,-1.3969841e-09,8.1490736e-10,-0.001460299,2
154156000,154156000,0.97409743,-0.00308283,-0.0013861036,-0.22610377,0.999999,-1.3969841e-09,8.1490736e-10,-0.001460299,2
154656000,154656000,0.9741026,-0.0033670529,-0.0010636942,-0.22607894,0.999999,-1.3969841e-09,8.1490736e-10,-0.001460299,2
155156000,155156000,0.9745677,-0.0027742374,-0.0017587717,-0.22406916,1.0,-9.313227e-10,-1.1641534e-10,-0.00017654897,3
155656000,155656000,0.97443587,-0.002754654,-0.001533712,-0.22464424,1.0,-9.313227e-10,-1.1641534e-10,-0.00017654897,3
156156000,156156000,0.97426546,-0.0021393253,-0.0011802125,-0.2253904,1.0,-9.313227e-10,-1.1641534e-10,-0.00017654897,3
156656000,156656000,0.974256,-0.001994358,-0.0009487215,-0.22543377,1.0,-9.313227e-10,-1.1641534e-10,-0.00017654897,3
157156000,157156000,0.9742783,-0.0023684865,-0.0012815268,-0.22533202,1.0,-9.313227e-10,-1.1641534e-10,-0.00017654897,3
157656000,157656000,0.9746403,-0.00544241,-0.006928349,-0.22360364,1.0,-9.313227e-10,-1.1641534e-10,-0.00017654897,3
158156000,158156000,0.98612213,-0.032962643,-0.12022512,-0.109648086,1.0,-9.313227e-10,-1.1641534e-10,-0.00017654897,3
158656000,158656000,0.99480647,-0.04143397,-0.05368877,0.07590001,1.0,-9.313227e-10,-1.1641534e-10,-0.00017654897,3
159156000,159156000,0.951921,0.039283514,-0.07108272,0.2953818,1.0,-9.313227e-10,-1.1641534e-10,-0.00017654897,3
159656000,159656000,0.86462224,0.042983007,-0.019246588,0.50021034,1.0,-9.313227e-10,-1.1641534e-10,-0.00017654897,3
160156000,160156000,0.7493749,0.057596557,-0.0063678613,0.65960544,1.0,-9.313227e-10,-1.1641534e-10,-0.00017654897,3
160656000,160656000,0.60527307,0.06136993,-0.002802883,0.79364383,1.0,-9.313227e-10,-1.1641534e-10,-0.00017654897,3
161156000,161156000,0.440286,0.051312566,-0.004121403,0.89638066,1.0,-9.313227e-10,-1.1641534e-10,-0.00017654897,3
161656000,161656000,0.25680405,0.036304176,-0.0079344455,0.9657488,1.0,-9.313227e-10,-1.1641534e-10,-0.00017654897,3
162156000,162156000,0.06313397,0.019196693,-0.010953335,0.9977603,1.0,-9.313227e-10,-1.1641534e-10,-0.00017654897,3
162656000,162656000,-0.13249926,0.009336185,-0.012221008,0.9910638,1.0,-9.313227e-10,-1.1641534e-10,-0.00017654897,3
163156000,163156000,-0.2619979,0.008137879,-0.012216628,0.9649569,1.0,-9.313227e-10,-1.1641534e-10,-0.00017654897,3
163656000,163656000,-0.34118697,0.009601624,-0.011916046,0.9398709,1.0,-9.313227e-10,-1.1641534e-10,-0.00017654897,3
164156000,164156000,-0.41409186,0.014042827,-0.010736496,0.91006345,1.0,-9.313227e-10,-1.1641534e-10,-0.00017654897,3
164656000,164656000,-0.4815529,0.019455671,-0.007838524,0.8761661,1.0,-9.313227e-10,-1.1641534e-10,-0.00017654897,3
165156000,165156000,-0.542599,0.022677468,-0.0047908495,0.8396721,1.0,-9.313227e-10,-1.1641534e-10,-0.00017654897,3
165656000,165656000,-0.59800947,0.02264631,-0.0034060557,0.8011618,1.0,-9.313227e-10,-1.1641534e-10,-0.00017654897,3
166156000,166156000,-0.64898056,0.021046303,-0.0029871094,0.76050794,1.0,-9.313227e-10,-1.1641534e-10,-0.00017654897,3
166656000,166656000,-0.69693273,0.019907689,-0.0029133959,0.7168543,1.0,-9.313227e-10,-1.1641534e-10,-0.00017654897,3
167156000,167156000,-0.7412231,0.018883634,-0.0023169634,0.67098916,1.0,-9.313227e-10,-1.1641534e-10,-0.00017654897,3
167656000,167656000,-0.78289425,0.019413523,-0.0011415168,0.6218509,1.0,-9.313227e-10,-1.1641534e-10,-0.00017654897,3
168156000,168156000,-0.82050014,0.019503908,-0.00071337045,0.5713131,1.0,-9.313227e-10,-1.1641534e-10,-0.00017654897,3
168656000,168656000,-0.85450083,0.019153867,-0.00019307471,0.5190967,1.0,-9.313227e-10,-1.1641534e-10,-0.00017654897,3
169156000,169156000,-0.88553655,0.018754518,0.001187161,0.46418965,1.0,-9.313227e-10,-1.1641534e-10,-0.00017654897,3
169656000,169656000,-0.91365117,0.018669767,0.002898442,0.4060601,1.0,-9.313227e-10,-1.1641534e-10,-0.00017654897,3
170156000,170156000,-0.9377443,0.018238883,0.004216058,0.34682158,1.0,-9.313227e-10,-1.1641534e-10,-0.00017654897,3
170656000,170656000,-0.9581714,0.018240057,0.0052239127,0.2855651,1.0,-9.313227e-10,-1.1641534e-10,-0.00017654897,3
171156000,171156000,-0.9743271,0.017915288,0.006948326,0.22431602,1.0,-9.313227e-10,-1.1641534e-10,-0.00017654897,3
171656000,171656000,-0.9864488,0.017454283,0.007602895,0.16296108,1.0,-9.313227e-10,-1.1641534e-10,-0.00017654897,3
172156000,172156000,-0.9946601,0.01683834,0.009206227,0.10140519,1.0,-9.313227e-10,-1.1641534e-10,-0.00017654897,3
172656000,172656000,-0.99904335,0.015778258,0.010195043,0.039490506,1.0,-9.313227e-10,-1.1641534e-10,-0.00017654897,3
173156000,173156000,-0.9995642,0.014483023,0.01092238,-0.02329427,1.0,-9.313227e-10,-1.1641534e-10,-0.00017654897,3
173656000,173656000,-0.99615735,0.01441384,0.011285597,-0.08564761,1.0,-9.313227e-10,-1.1641534e-10,-0.00017654897,3
174156000,174156000,-0.9890323,0.014023356,0.011576895,-0.14657617,1.0,-9.313227e-10,-1.1641534e-10,-0.00017654897,3
174656000,174656000,-0.9781447,0.013054404,0.012424935,-0.20714319,1.0,-9.313227e-10,-1.1641534e-10,-0.00017654897,3
175156000,175156000,-0.9634512,0.012022207,0.013970617,-0.26724905,1.0,-9.313227e-10,-1.1641534e-10,-0.00017654897,3
175656000,175656000,-0.9449569,0.011484838,0.014409169,-0.32667562,1.0,-9.313227e-10,-1.1641534e-10,-0.00017654897,3
176156000,176156000,-0.9226944,0.0108729005,0.015460899,-0.38506877,1.0,-9.313227e-10,-1.1641534e-10,-0.00017654897,3
176656000,176656000,-0.89705163,0.010197823,0.015797721,-0.44152582,1.0,-9.313227e-10,-1.1641534e-10,-0.00017654897,3
177156000,177156000,-0.86792266,0.009098082,0.016074741,-0.49635598,1.0,-9.313227e-10,-1.1641534e-10,-0.00017654897,3
177656000,177656000,-0.83487624,0.0074425745,0.017158642,-0.5501198,1.0,-9.313227e-10,-1.1641534e-10,-0.00017654897,3
178156000,178156000,-0.79803514,0.0055038524,0.018459285,-0.602303,1.0,-9.313227e-10,-1.1641534e-10,-0.00017654897,3
178656000,178656000,-0.75803727,0.003997974,0.018999051,-0.65192235,1.0,-9.313227e-10,-1.1641534e-10,-0.00017654897,3
179156000,179156000,-0.7151952,0.0027394926,0.019201988,-0.6986556,1.0,-9.313227e-10,-1.1641534e-10,-0.00017654897,3
179656000,179656000,-0.6703035,0.0017907051,0.019098608,-0.7418391,1.0,-9.313227e-10,-1.1641534e-10,-0.00017654897,3
180156000,180156000,-0.6225799,0.00010542895,0.01932865,-0.78231746,1.0,-9.313227e-10,-1.1641534e-10,-0.00017654897,3
180656000,180656000,-0.5719756,-0.00116567,0.019208658,-0.8200448,1.0,-9.313227e-10,-1.1641534e-10,-0.00017654897,3
181156000,181156000,-0.51989365,-0.0020545647,0.01923579,-0.854012,1.0,-9.313227e-10,-1.1641534e-10,-0.00017654897,3
181656000,181656000,-0.4663879,-0.0028656605,0.018925855,-0.8843732,1.0,-9.313227e-10,-1.1641534e-10,-0.00017654897,3
182156000,182156000,-0.4111415,-0.0037821876,0.018226415,-0.9113814,1.0,-9.313227e-10,-1.1641534e-10,-0.00017654897,3
182656000,182656000,-0.35379985,-0.005315226,0.018054005,-0.9351318,1.0,-9.313227e-10,-1.1641534e-10,-0.00017654897,3
183156000,183156000,-0.29513896,-0.0067233266,0.017785486,-0.95526516,1.0,-9.313227e-10,-1.1641534e-10,-0.00017654897,3
183656000,183656000,-0.23574471,-0.007733774,0.01762418,-0.97162443,1.0,-9.313227e-10,-1.1641534e-10,-0.00017654897,3
184156000,184156000,-0.17602934,-0.007686989,0.017149268,-0.98420554,1.0,-9.313227e-10,-1.1641534e-10,-0.00017654897,3
184656000,184656000,-0.115629576,-0.00858896,0.016296173,-0.9931216,1.0,-9.313227e-10,-1.1641534e-10,-0.00017654897,3
185156000,185156000,-0.054603852,-0.008698374,0.015899422,-0.9983436,1.0,-9.313227e-10,-1.1641534e-10,-0.00017654897,3
185656000,185656000,0.0062586996,-0.010134384,0.015354438,-0.99981123,1.0,-9.313227e-10,-1.1641534e-10,-0.00017654897,3
186156000,186156000,0.06445447,-0.010758877,0.014677799,-0.99775475,1.0,-9.313227e-10,-1.1641534e-10,-0.00017654897,3
186656000,186656000,0.050568618,0.004685659,-0.08615543,-0.99498653,1.0,-9.313227e-10,-1.1641534e-10,-0.00017654897,3
187156000,187156000,0.04883811,0.009211527,-0.026472853,-0.9984134,1.0,-9.313227e-10,-1.1641534e-10,-0.00017654897,3
187656000,187656000,0.048558794,-0.005512957,-0.004981808,-0.99879277,1.0,-9.313227e-10,-1.1641534e-10,-0.00017654897,3
188156000,188156000,0.047073465,-0.0053555346,-0.0020836499,-0.9988749,1.0,-9.313227e-10,-1.1641534e-10,-0.00017654897,3
188656000,188656000,0.04716418,-0.0053691156,-0.00018855461,-0.99887276,1.0,-9.313227e-10,-1.1641534e-10,-0.00017654897,3
189156000,189156000,0.046563294,-0.00456979,0.0015283893,-0.9989038,1.0,-9.313227e-10,-1.1641534e-10,-0.00017654897,3
189656000,189656000,0.04653895,-0.0026696562,0.0024373522,-0.99890995,1.0,-9.313227e-10,-1.1641534e-10,-0.00017654897,3
190156000,190156000,0.046481583,-0.0021069448,0.0025754422,-0.99891365,1.0,-9.313227e-10,-1.1641534e-10,-0.00017654897,3
190656000,190656000,0.046431467,-0.0004346382,0.0013741062,-0.99892044,1.0,-9.313227e-10,-1.1641534e-10,-0.00017654897,3
191156000,191156000,0.046459902,0.00051745976,0.0005966003,-0.99891984,1.0,-9.313227e-10,-1.1641534e-10,-0.00017654897,3
191656000,191656000,0.046468962,0.0005237486,-0.00041307232,-0.9989195,1.0,-9.313227e-10,-1.1641534e-10,-0.00017654897,3
192156000,192156000,0.046758346,0.00036891457,-0.0013050813,-0.9989053,1.0,-9.313227e-10,-1.1641534e-10,-0.00017654897,3
192656000,192656000,0.04696071,2.8538465e-05,-0.0022384592,-0.9988942,1.0,-9.313227e-10,-1.1641534e-10,-0.00017654897,3
193156000,193156000,0.046917904,0.00014290721,-0.0026086818,-0.99889535,1.0,-9.313227e-10,-1.1641534e-10,-0.00017654897,3
193656000,193656000,0.04693142,-2.3763816e-06,-0.002005762,-0.9988962,1.0,-9.313227e-10,-1.1641534e-10,-0.00017654897,3
194156000,194156000,0.04700096,0.00019244003,-0.0025071576,-0.9988917,1.0,-9.313227e-10,-1.1641534e-10,-0.00017654897,3
194656000,194656000,0.04714234,0.00082110014,-0.0025444368,-0.9988846,1.0,-9.313227e-10,-1.1641534e-10,-0.00017654897,3
195156000,195156000,0.047139514,0.0011375564,-0.002745078,-0.99888396,1.0,-9.313227e-10,-1.1641534e-10,-0.00017654897,3
195656000,195656000,0.047160566,0.0013193164,-0.0031579426,-0.9988815,1.0,-9.313227e-10,-1.1641534e-10,-0.00017654897,3
196156000,196156000,0.047077764,0.0012401958,-0.0029584544,-0.9988861,1.0,-9.313227e-10,-1.1641534e-10,-0.00017654897,3
196656000,196656000,0.046923157,0.00091909285,-0.0023417687,-0.9988954,1.0,-9.313227e-10,-1.1641534e-10,-0.00017654897,3
197156000,197156000,0.046934087,0.000853258,-0.002121972,-0.9988954,1.0,-9.313227e-10,-1.1641534e-10,-0.00017654897,3
197656000,197656000,0.04699183,0.00086258235,-0.002325995,-0.9988922,1.0,-9.313227e-10,-1.1641534e-10,-0.00017654897,3
198156000,198156000,0.04856046,-0.0071074124,0.0100137945,-0.9987448,1.0,-9.313227e-10,-1.1641534e-10,-0.00017654897,3
198656000,198656000,0.11815899,-0.018975299,0.03957036,-0.9920245,1.0,-9.313227e-10,-1.1641534e-10,-0.00017654897,3
199156000,199156000,0.16242199,-0.010160192,0.026581258,-0.986311,1.0,-9.313227e-10,-1.1641534e-10,-0.00017654897,3
199656000,199656000,0.21445729,-0.005302041,0.01817291,-0.97654986,1.0,-9.313227e-10,-1.1641534e-10,-0.00017654897,3
200156000,200156000,0.2791832,-0.0069761807,0.01372788,-0.9601145,1.0,-9.313227e-10,-1.1641534e-10,-0.00017654897,3
200656000,200656000,0.35026917,-0.012610249,0.009896481,-0.936512,1.0,-9.313227e-10,-1.1641534e-10,-0.00017654897,3
201156000,201156000,0.42180833,-0.017936788,0.006143153,-0.9064868,1.0,-9.313227e-10,-1.1641534e-10,-0.00017654897,3
201656000,201656000,0.48918897,-0.021177497,0.0029184127,-0.8719158,1.0,-9.313227e-10,-1.1641534e-10,-0.00017654897,3
202156000,202156000,0.55039525,-0.021417351,0.0014825847,-0.8346282,1.0,-9.313227e-10,-1.1641534e-10,-0.00017654897,3
202656000,202656000,0.6058969,-0.020684984,0.00045391792,-0.7952741,1.0,-9.313227e-10,-1.1641534e-10,-0.00017654897,3
203156000,203156000,0.656416,-0.01966405,0.00024355324,-0.7541428,1.0,-9.313227e-10,-1.1641534e-10,-0.00017654897,3
203656000,203656000,0.70265985,-0.018410278,-0.0001469619,-0.7112878,1.0,-9.313227e-10,-1.1641534e-10,-0.00017654897,3
204156000,204156000,0.74583405,-0.01769438,6.684215e-05,-0.66589683,1.0,-9.313227e-10,-1.1641534e-10,-0.00017654897,3
204656000,204656000,0.7853523,-0.01732962,-0.0005296053,-0.61880636,1.0,-9.313227e-10,-1.1641534e-10,-0.00017654897,3
205156000,205156000,0.8213449,-0.017010078,-0.0006865819,-0.5701778,1.0,-9.313227e-10,-1.1641534e-10,-0.00017654897,3
205656000,205656000,0.8539777,-0.017100742,-0.0016299039,-0.52002615,1.0,-9.313227e-10,-1.1641534e-10,-0.00017654897,3
206156000,206156000,0.88329583,-0.016933324,-0.0030135391,-0.4685005,1.0,-9.313227e-10,-1.1641534e-10,-0.00017654897,3
206656000,206656000,0.9095101,-0.01652457,-0.0034804936,-0.4153389,1.0,-9.313227e-10,-1.1641534e-10,-0.00017654897,3
207156000,207156000,0.93208236,-0.01622149,-0.004390363,-0.36185673,1.0,-9.313227e-10,-1.1641534e-10,-0.00017654897,3
207656000,207656000,0.95150846,-0.016086662,-0.0061796014,-0.30713975,1.0,-9.313227e-10,-1.1641534e-10,-0.00017654897,3
208156000,208156000,0.9678393,-0.015205671,-0.007566981,-0.2509953,1.0,-9.313227e-10,-1.1641534e-10,-0.00017654897,3
208656000,208656000,0.98098963,-0.014749805,-0.008131912,-0.19332835,1.0,-9.313227e-10,-1.1641534e-10,-0.00017654897,3
209156000,209156000,0.9906733,-0.014634815,-0.008978594,-0.13517272,1.0,-9.313227e-10,-1.1641534e-10,-0.00017654897,3
209656000,209656000,0.99693286,-0.013963173,-0.008326994,-0.07655508,1.0,-9.313227e-10,-1.1641534e-10,-0.00017654897,3
210156000,210156000,0.9997159,-0.013311807,-0.008072318,-0.01805231,1.0,-9.313227e-10,-1.1641534e-10,-0.00017654897,3
210656000,210656000,0.9990346,-0.013074391,-0.0093241315,0.04089147,1.0,-9.313227e-10,-1.1641534e-10,-0.00017654897,3
211156000,211156000,0.9949034,-0.012917228,-0.010857697,0.099410735,1.0,-9.313227e-10,-1.1641534e-10,-0.00017654897,3
211656000,211656000,0.98738104,-0.012470787,-0.011935873,0.157419,1.0,-9.313227e-10,-1.1641534e-10,-0.00017654897,3
212156000,212156000,0.97635007,-0.010934619,-0.013439121,0.21550027,1.0,-9.313227e-10,-1.1641534e-10,-0.00017654897,3
212656000,212656000,0.961815,-0.009916851,-0.013996394,0.27316254,1.0,-9.313227e-10,-1.1641534e-10,-0.00017654897,3
213156000,213156000,0.94363976,-0.009419758,-0.013863863,0.3305498,1.0,-9.313227e-10,-1.1641534e-10,-0.00017654897,3
213656000,213656000,0.9219497,-0.008391876,-0.013730996,0.38697526,1.0,-9.313227e-10,-1.1641534e-10,-0.00017654897,3
214156000,214156000,0.8965224,-0.007686169,-0.014300088,0.44270077,1.0,-9.313227e-10,-1.1641534e-10,-0.00017654897,3
214656000,214656000,0.86794615,-0.0065729446,-0.014689591,0.49639764,1.0,-9.313227e-10,-1.1641534e-10,-0.00017654897,3
215156000,215156000,0.83598506,-0.0054518473,-0.0151189,0.54851675,1.0,-9.313227e-10,-1.1641534e-10,-0.00017654897,3
215656000,215656000,0.8008423,-0.0043138093,-0.015787473,0.59865177,1.0,-9.313227e-10,-1.1641534e-10,-0.00017654897,3
216156000,216156000,0.7628499,-0.0028754054,-0.016231831,0.6463655,1.0,-9.313227e-10,-1.1641534e-10,-0.00017654897,3
216656000,216656000,0.7224682,-0.0023558766,-0.015935766,0.6912165,1.0,-9.313227e-10,-1.1641534e-10,-0.00017654897,3
217156000,217156000,0.679713,-0.001456858,-0.015753185,0.7333076,1.0,-9.313227e-10,-1.1641534e-10,-0.00017654897,3
217656000,217656000,0.63413167,0.0004445714,-0.01578592,0.77306384,1.0,-9.313227e-10,-1.1641534e-10,-0.00017654897,3
218156000,218156000,0.58599484,0.001857271,-0.015759083,0.81015944,1.0,-9.313227e-10,-1.1641534e-10,-0.00017654897,3
218656000,218656000,0.53643197,0.0029754573,-0.015583062,0.84379447,1.0,-9.313227e-10,-1.1641534e-10,-0.00017654897,3
219156000,219156000,0.48587003,0.0027681405,-0.0151837645,0.8738949,1.0,-9.313227e-10,-1.1641534e-10,-0.00017654897,3
219656000,219656000,0.43492305,0.0031679824,-0.014686274,0.9003423,1.0,-9.313227e-10,-1.1641534e-10,-0.00017654897,3
220156000,220156000,0.38306344,0.003706383,-0.01399123,0.9236087,1.0,-9.313227e-10,-1.1641534e-10,-0.00017654897,3
220656000,220656000,0.32996005,0.0039763935,-0.0138144735,0.9438855,1.0,-9.313227e-10,-1.1641534e-10,-0.00017654897,3
221156000,221156000,0.27502272,0.00527778,-0.014109878,0.96131974,1.0,-9.313227e-10,-1.1641534e-10,-0.00017654897,3
221656000,221656000,0.21854028,0.006055852,-0.013953548,0.9757094,1.0,-9.313227e-10,-1.1641534e-10,-0.00017654897,3
222156000,222156000,0.16007128,0.007816531,-0.013158095,0.9869869,1.0,-9.313227e-10,-1.1641534e-10,-0.00017654897,3
222656000,222656000,0.10047721,0.00859247,-0.013249791,0.9948141,1.0,-9.313227e-10,-1.1641534e-10,-0.00017654897,3
223156000,223156000,0.041081358,0.008262025,-0.013302869,0.9990331,1.0,-9.313227e-10,-1.1641534e-10,-0.00017654897,3
223656000,223656000,-0.019647663,0.009733448,-0.0127301365,0.9996786,1.0,-9.313227e-10,-1.1641534e-10,-0.00017654897,3
224156000,224156000,-0.082028404,0.011068219,-0.012307567,0.99649256,1.0,-9.313227e-10,-1.1641534e-10,-0.00017654897,3
224656000,224656000,-0.1439329,0.012993711,-0.011563834,0.98943466,1.0,-9.313227e-10,-1.1641534e-10,-0.00017654897,3
225156000,225156000,-0.20574789,0.014770342,-0.010733041,0.97843474,1.0,-9.313227e-10,-1.1641534e-10,-0.00017654897,3
225656000,225656000,-0.2673332,0.015369933,-0.009467752,0.96343505,1.0,-9.313227e-10,-1.1641534e-10,-0.00017654897,3
226156000,226156000,-0.32795855,0.015805496,-0.008511029,0.9445216,1.0,-9.313227e-10,-1.1641534e-10,-0.00017654897,3
226656000,226656000,-0.38716224,0.016039869,-0.007172409,0.92184424,1.0,-9.313227e-10,-1.1641534e-10,-0.00017654897,3
227156000,227156000,-0.44460928,0.01690483,-0.0057952455,0.89554644,1.0,-9.313227e-10,-1.1641534e-10,-0.00017654897,3
227656000,227656000,-0.5008283,0.017465264,-0.004817425,0.8653571,1.0,-9.313227e-10,-1.1641534e-10,-0.00017654897,3
228156000,228156000,-0.5543127,0.017468566,-0.0036922984,0.8321171,1.0,-9.313227e-10,-1.1641534e-10,-0.00017654897,3
228656000,228656000,-0.6048964,0.016977567,-0.003104018,0.79611707,1.0,-9.313227e-10,-1.1641534e-10,-0.00017654897,3
229156000,229156000,-0.65265256,0.017453052,-0.001909213,0.7574539,1.0,-9.313227e-10,-1.1641534e-10,-0.00017654897,3
229656000,229656000,-0.69820505,0.017933868,-0.0006794034,0.71567297,1.0,-9.313227e-10,-1.1641534e-10,-0.00017654897,3
230156000,230156000,-0.7409076,0.017480474,0.00025720842,0.6713795,1.0,-9.313227e-10,-1.1641534e-10,-0.00017654897,3
230656000,230656000,-0.78104085,0.016954772,0.00087929156,0.62424916,1.0,-9.313227e-10,-1.1641534e-10,-0.00017654897,3
231156000,231156000,-0.8182062,0.017315589,0.0013990863,0.5746623,1.0,-9.313227e-10,-1.1641534e-10,-0.00017654897,3
231656000,231656000,-0.85226184,0.017235674,0.002672484,0.5228247,1.0,-9.313227e-10,-1.1641534e-10,-0.00017654897,3
232156000,232156000,-0.88327825,0.017734615,0.003273059,0.4685022,1.0,-9.313227e-10,-1.1641534e-10,-0.00017654897,3
232656000,232656000,-0.9105667,0.016810663,0.00379294,0.41300282,1.0,-9.313227e-10,-1.1641534e-10,-0.00017654897,3
233156000,233156000,-0.9349777,0.016729074,0.004996507,0.35427666,1.0,-9.313227e-10,-1.1641534e-10,-0.00017654897,3
233656000,233656000,-0.9559362,0.016505985,0.006245763,0.2930437,1.0,-9.313227e-10,-1.1641534e-10,-0.00017654897,3
234156000,234156000,-0.97314936,0.016586516,0.008261331,0.22942765,1.0,-9.313227e-10,-1.1641534e-10,-0.00017654897,3
234656000,234656000,-0.9862094,0.01626056,0.010454661,0.16436961,1.0,-9.313227e-10,-1.1641534e-10,-0.00017654897,3
235156000,235156000,-0.99487734,0.015586834,0.0116834175,0.09919492,1.0,-9.313227e-10,-1.1641534e-10,-0.00017654897,3
235656000,235656000,-0.98214835,-0.048791323,0.0053844457,0.18159033,1.0,-9.313227e-10,-1.1641534e-10,-0.00017654897,3
236156000,236156000,-0.9640786,-0.03862489,-0.0015242959,0.26278925,1.0,-9.313227e-10,-1.1641534e-10,-0.00017654897,3
236656000,236656000,-0.9665283,-0.025063,0.11264779,0.22914037,1.0,-9.313227e-10,-1.1641534e-10,-0.00017654897,3
237156000,237156000,-0.97074336,-0.018510636,0.1014666,0.21683925,1.0,-9.313227e-10,-1.1641534e-10,-0.00017654897,3
237656000,237656000,-0.974611,-0.004998946,0.028874533,0.22197917,1.0,-9.313227e-10,-1.1641534e-10,-0.00017654897,3
238156000,238156000,-0.97217155,0.018804278,-0.061141577,0.22536781,1.0,-9.313227e-10,-1.1641534e-10,-0.00017654897,3
238656000,238656000,-0.9732,0.012764204,-0.038268346,0.22639406,1.0,-9.313227e-10,-1.1641534e-10,-0.00017654897,3
239156000,239156000,-0.97364014,-0.00034567073,-0.015640568,0.2275525,1.0,-9.313227e-10,-1.1641534e-10,-0.00017654897,3
239656000,239656000,-0.97387516,-0.00039214958,-0.013915611,0.2266568,1.0,-9.313227e-10,-1.1641534e-10,-0.00017654897,3
240156000,240156000,-0.9740823,-0.004255128,-0.009671484,0.2259473,1.0,-9.313227e-10,-1.1641534e-10,-0.00017654897,3
240656000,240656000,-0.97408134,-0.007457636,-0.0060532168,0.22599399,1.0,-9.313227e-10,-1.1641534e-10,-0.00017654897,3
241156000,241156000,-0.9741167,-0.008291655,-0.0031821907,0.22587158,1.0,-9.313227e-10,-1.1641534e-10,-0.00017654897,3
241656000,241656000,-0.9740761,-0.008258096,-0.0023654876,0.2260576,1.0,-9.313227e-10,-1.1641534e-10,-0.00017654897,3
242156000,242156000,-0.974005,-0.006638668,-0.0022544104,0.22641838,1.0,-9.313227e-10,-1.1641534e-10,-0.00017654897,3
242656000,242656000,-0.9739485,-0.0048363,-0.0023735776,0.22670558,1.0,-9.313227e-10,-1.1641534e-10,-0.00017654897,3
243156000,243156000,-0.9739275,-0.0025905648,-0.001408913,0.22684023,1.0,-9.313227e-10,-1.1641534e-10,-0.00017654897,3
243656000,243656000,-0.97392887,-0.0012340802,-0.0017128956,0.22684385,1.0,-9.313227e-10,-1.1641534e-10,-0.00017654897,3
244156000,244156000,-0.9739189,-0.0015944277,-0.0027130067,0.22687499,1.0,-9.313227e-10,-1.1641534e-10,-0.00017654897,3
244656000,244656000,-0.9738779,-0.0020593416,-0.0033788127,0.22703786,1.0,-9.313227e-10,-1.1641534e-10,-0.00017654897,3
245156000,245156000,-0.9738537,-0.0021209612,-0.002683835,0.2271506,1.0,-9.313227e-10,-1.1641534e-10,-0.00017654897,3
245656000,245656000,-0.97386175,-0.0019950254,-0.0032283633,0.22711012,1.0,-9.313227e-10,-1.1641534e-10,-0.00017654897,3
246156000,246156000,-0.9738566,-0.002616447,-0.0035579388,0.22712068,1.0,-9.313227e-10,-1.1641534e-10,-0.00017654897,3
246656000,246656000,-0.9738043,-0.0033180343,-0.002724294,0.22734702,1.0,-9.313227e-10,-1.1641534e-10,-0.00017654897,3
247156000,247156000,-0.9736485,-0.0018093432,-0.012103802,0.22772567,1.0,-9.313227e-10,-1.1641534e-10,-0.00017654897,3
247656000,247656000,-0.97365826,-0.0019257822,-0.012342975,0.22766997,1.0,-9.313227e-10,-1.1641534e-10,-0.00017654897,3
248156000,248156000,-0.9736656,-0.00094962603,-0.011980873,0.22766414,1.0,-9.313227e-10,-1.1641534e-10,-0.00017654897,3
248656000,248656000,-0.9736298,-0.00067757926,-0.012111123,0.22781138,1.0,-9.313227e-10,-1.1641534e-10,-0.00017654897,3
249156000,249156000,-0.973579,-0.00080845447,-0.012127205,0.22802721,1.0,-9.313227e-10,-1.1641534e-10,-0.00017654897,3
249656000,249656000,-0.9735721,-0.00063595746,-0.012071305,0.22805983,1.0,-9.313227e-10,-1.1641534e-10,-0.00017654897,3
250156000,250156000,-0.9735516,-0.0005083318,-0.0119100055,0.22815633,1.0,-9.313227e-10,-1.1641534e-10,-0.00017654897,3
250656000,250656000,-0.9735022,-0.00039131255,-0.012140609,0.22835451,1.0,-9.313227e-10,-1.1641534e-10,-0.00017654897,3
251156000,251156000,-0.9734246,-0.00014309975,-0.012122448,0.22868665,1.0,-9.313227e-10,-1.1641534e-10,-0.00017654897,3
251656000,251656000,-0.9733967,-0.0001518561,-0.01221118,0.22880092,1.0,-9.313227e-10,-1.1641534e-10,-0.00017654897,3
252156000,252156000,-0.9734084,-0.00019700425,-0.012112643,0.2287561,1.0,-9.313227e-10,-1.1641534e-10,-0.00017654897,3
252656000,252656000,-0.97345036,-0.00085085485,-0.012168059,0.22857346,1.0,-9.313227e-10,-1.1641534e-10,-0.00017654897,3
253156000,253156000,-0.97346604,-0.00037923054,-0.012296682,0.22850063,1.0,-9.313227e-10,-1.1641534e-10,-0.00017654897,3
253656000,253656000,-0.9734704,-0.0011772641,-0.012816469,0.22845073,1.0,-9.313227e-10,-1.1641534e-10,-0.00017654897,3
254156000,254156000,-0.9734999,-0.00056658784,-0.01261149,0.22833885,1.0,-9.313227e-10,-1.1641534e-10,-0.00017654897,3
254656000,254656000,-0.9735362,-0.0015467635,-0.013106093,0.22815186,1.0,-9.313227e-10,-1.1641534e-10,-0.00017654897,3
255156000,255156000,-0.9735629,-0.0006884235,-0.01282199,0.22805816,1.0,-9.313227e-10,-1.1641534e-10,-0.00017654897,3
255656000,255656000,-0.9735768,-0.0014466597,-0.013216405,0.2279728,1.0,-9.313227e-10,-1.1641534e-10,-0.00017654897,3
256156000,256156000,-0.9735819,-0.000936055,-0.01308585,0.22796091,1.0,-9.313227e-10,-1.1641534e-10,-0.00017654897,3
256656000,256656000,-0.9735935,-0.0012557693,-0.013286453,0.22789843,1.0,-9.313227e-10,-1.1641534e-10,-0.00017654897,3
257156000,257156000,-0.97361815,-0.0010537287,-0.0133571215,0.22778958,1.0,-9.313227e-10,-1.1641534e-10,-0.00017654897,3
257656000,257656000,-0.973637,-0.0011407888,-0.013393605,0.22770649,1.0,-9.313227e-10,-1.1641534e-10,-0.00017654897,3
258156000,258156000,-0.9736723,-0.0012267104,-0.013602985,0.22754306,1.0,-9.313227e-10,-1.1641534e-10,-0.00017654897,3
258656000,258656000,-0.9737297,-0.0012390665,-0.013601513,0.22729708,1.0,-9.313227e-10,-1.1641534e-10,-0.00017654897,3
259156000,259156000,-0.97374785,-0.0012194365,-0.013757686,0.22721021,1.0,-9.313227e-10,-1.1641534e-10,-0.00017654897,3
