timestamp,timestamp_sample,q[0],q[1],q[2],q[3],delta_q_reset[0],delta_q_reset[1],delta_q_reset[2],delta_q_reset[3],quat_reset_counter
126712000,0,0.97710985,-0.0025439265,0.008925079,-0.2125542,0.0,0.0,0.0,0.0,0
126716000,0,0.9771099,-0.002548511,0.008923454,-0.21255414,0.0,0.0,0.0,0.0,0
126724000,0,0.9771097,-0.0025147726,0.008946705,-0.21255444,0.0,0.0,0.0,0.0,0
126732000,0,0.9771097,-0.0025162415,0.008946767,-0.21255443,0.0,0.0,0.0,0.0,0
126744000,0,0.9771097,-0.002517005,0.008946849,-0.21255441,0.0,0.0,0.0,0.0,0
126752000,0,0.9771097,-0.0025184269,0.008946906,-0.2125544,0.0,0.0,0.0,0.0,0
126764000,0,0.9771097,-0.0025196702,0.0089468835,-0.2125544,0.0,0.0,0.0,0.0,0
126772000,0,0.9771097,-0.0025201633,0.008946936,-0.21255438,0.0,0.0,0.0,0.0,0
126784000,0,0.9771097,-0.002521819,0.008947018,-0.21255437,0.0,0.0,0.0,0.0,0
126792000,0,0.9771097,-0.002522347,0.008947007,-0.21255437,0.0,0.0,0.0,0.0,0
126804000,0,0.9771097,-0.0025230965,0.0089470865,-0.21255435,0.0,0.0,0.0,0.0,0
126812000,0,0.9771097,-0.0025240378,0.008947175,-0.21255435,0.0,0.0,0.0,0.0,0
126824000,0,0.97710943,-0.002477054,0.008979157,-0.21255478,0.0,0.0,0.0,0.0,0
126832000,0,0.97710943,-0.0024772442,0.008979708,-0.21255478,0.0,0.0,0.0,0.0,0
126844000,0,0.97710943,-0.0024776047,0.008980196,-0.21255478,0.0,0.0,0.0,0.0,0
126852000,0,0.9771094,-0.0024778445,0.008980465,-0.21255478,0.0,0.0,0.0,0.0,0
126864000,0,0.9771094,-0.0024782033,0.008980869,-0.21255477,0.0,0.0,0.0,0.0,0
126872000,0,0.9771094,-0.0024784417,0.0089811385,-0.21255477,0.0,0.0,0.0,0.0,0
126884000,0,0.9771094,-0.0024785947,0.008981693,-0.21255477,0.0,0.0,0.0,0.0,0
126892000,0,0.9771094,-0.0024784247,0.008982226,-0.21255478,0.0,0.0,0.0,0.0,0
126904000,0,0.9771094,-0.002478577,0.008982813,-0.21255478,0.0,0.0,0.0,0.0,0
126912000,0,0.9771094,-0.0024786093,0.0089831995,-0.21255478,0.0,0.0,0.0,0.0,0
126924000,0,0.9771094,-0.0024789616,0.008983638,-0.21255478,0.0,0.0,0.0,0.0,0
126932000,0,0.9771094,-0.0024791965,0.008983909,-0.21255477,0.0,0.0,0.0,0.0,0
126944000,0,0.9771094,-0.0024793434,0.008984463,-0.21255477,0.0,0.0,0.0,0.0,0
126952000,0,0.9771094,-0.0024795774,0.008984734,-0.21255477,0.0,0.0,0.0,0.0,0
126964000,0,0.9771094,-0.0024797223,0.008985289,-0.21255477,0.0,0.0,0.0,0.0,0
126972000,0,0.9771094,-0.0024797493,0.008985673,-0.21255477,0.0,0.0,0.0,0.0,0
126984000,0,0.9771094,-0.002480098,0.008986115,-0.21255477,0.0,0.0,0.0,0.0,0
126992000,0,0.9771093,-0.0024803309,0.008986387,-0.21255477,0.0,0.0,0.0,0.0,0
127004000,0,0.9771093,-0.002480472,0.008986943,-0.21255477,0.0,0.0,0.0,0.0,0
127012000,0,0.9771093,-0.002480704,0.008987215,-0.21255477,0.0,0.0,0.0,0.0,0
127024000,0,0.9771093,-0.0024810517,0.008987625,-0.21255477,0.0,0.0,0.0,0.0,0
127032000,0,0.9771093,-0.0024810757,0.008988009,-0.21255477,0.0,0.0,0.0,0.0,0
127044000,0,0.9771093,-0.0024814215,0.008988454,-0.21255477,0.0,0.0,0.0,0.0,0
127052000,0,0.9771093,-0.0024816522,0.008988728,-0.21255477,0.0,0.0,0.0,0.0,0
127064000,0,0.9771093,-0.002481582,0.008989391,-0.21255477,0.0,0.0,0.0,0.0,0
127072000,0,0.9771093,-0.002481811,0.008989701,-0.21255477,0.0,0.0,0.0,0.0,0
127084000,0,0.9771093,-0.0024821546,0.008990113,-0.21255477,0.0,0.0,0.0,0.0,0
127092000,0,0.9771093,-0.0024821765,0.008990533,-0.21255477,0.0,0.0,0.0,0.0,0
127104000,0,0.9771093,-0.0024823127,0.00899109,-0.21255477,0.0,0.0,0.0,0.0,0
127112000,0,0.977109,-0.002431951,0.009024525,-0.21255523,0.0,0.0,0.0,0.0,0
127124000,0,0.977109,-0.002432524,0.009025252,-0.21255523,0.0,0.0,0.0,0.0,0
127132000,0,0.977109,-0.0024327256,0.009025684,-0.21255523,0.0,0.0,0.0,0.0,0
127144000,0,0.977109,-0.0024330232,0.00902613,-0.21255523,0.0,0.0,0.0,0.0,0
127152000,0,0.977109,-0.0024332209,0.009026427,-0.21255523,0.0,0.0,0.0,0.0,0
127164000,0,0.977109,-0.0024333224,0.009027007,-0.21255523,0.0,0.0,0.0,0.0,0
127172000,0,0.97710896,-0.0024335193,0.009027305,-0.21255523,0.0,0.0,0.0,0.0,0
127184000,0,0.97710896,-0.0024338139,0.009027753,-0.21255523,0.0,0.0,0.0,0.0,0
127192000,0,0.97710896,-0.00243401,0.009028052,-0.21255523,0.0,0.0,0.0,0.0,0
127204000,0,0.97710896,-0.0024341093,0.009028634,-0.21255523,0.0,0.0,0.0,0.0,0
127212000,0,0.97710896,-0.002433912,0.00902915,-0.21255523,0.0,0.0,0.0,0.0,0
127224000,0,0.97710896,-0.0024340095,0.009029724,-0.21255523,0.0,0.0,0.0,0.0,0
127232000,0,0.97710896,-0.0024342043,0.009030074,-0.21255523,0.0,0.0,0.0,0.0,0
127244000,0,0.97710896,-0.0024344956,0.009030525,-0.21255523,0.0,0.0,0.0,0.0,0
127252000,0,0.97710896,-0.002434494,0.009030905,-0.21255523,0.0,0.0,0.0,0.0,0
127264000,0,0.97710896,-0.0024347848,0.009031407,-0.21255523,0.0,0.0,0.0,0.0,0
127272000,0,0.97710896,-0.0024349778,0.009031708,-0.21255523,0.0,0.0,0.0,0.0,0
127284000,0,0.97710896,-0.0024350712,0.009032238,-0.21255523,0.0,0.0,0.0,0.0,0
127292000,0,0.97710896,-0.0024352642,0.009032593,-0.21255523,0.0,0.0,0.0,0.0,0
127304000,0,0.97710896,-0.0024355522,0.009033045,-0.21255523,0.0,0.0,0.0,0.0,0
127312000,0,0.9771089,-0.0024357436,0.0090333475,-0.21255523,0.0,0.0,0.0,0.0,0
127324000,0,0.9771089,-0.0024360304,0.009033801,-0.21255521,0.0,0.0,0.0,0.0,0
127332000,0,0.9771089,-0.0024362213,0.009034104,-0.21255521,0.0,0.0,0.0,0.0,0
127344000,0,0.9771089,-0.002436507,0.009034557,-0.21255521,0.0,0.0,0.0,0.0,0
127352000,0,0.9771089,-0.0024365035,0.009034992,-0.21255521,0.0,0.0,0.0,0.0,0
127364000,0,0.9771089,-0.0024365932,0.009035519,-0.21255521,0.0,0.0,0.0,0.0,0
127372000,0,0.9771089,-0.0024367836,0.00903588,-0.21255521,0.0,0.0,0.0,0.0,0
127384000,0,0.9771089,-0.0024368733,0.009036408,-0.21255521,0.0,0.0,0.0,0.0,0
127392000,0,0.9771089,-0.0024366642,0.009036977,-0.21255523,0.0,0.0,0.0,0.0,0
127404000,0,0.9771089,-0.0024367482,0.009037606,-0.21255523,0.0,0.0,0.0,0.0,0
127412000,0,0.9771089,-0.002436936,0.009037911,-0.21255523,0.0,0.0,0.0,0.0,0
127424000,0,0.9771089,-0.0024370244,0.009038499,-0.21255523,0.0,0.0,0.0,0.0,0
127432000,0,0.9771089,-0.0024370202,0.009038935,-0.21255523,0.0,0.0,0.0,0.0,0
127444000,0,0.97710884,-0.0024371063,0.009039463,-0.21255523,0.0,0.0,0.0,0.0,0
127452000,0,0.9771086,-0.00238603,0.009073257,-0.2125557,0.0,0.0,0.0,0.0,0
127464000,0,0.97710854,-0.002386001,0.009074365,-0.2125557,0.0,0.0,0.0,0.0,0
127472000,0,0.97710854,-0.0023858533,0.009075069,-0.2125557,0.0,0.0,0.0,0.0,0
127484000,0,0.97710854,-0.0023859793,0.009075804,-0.2125557,0.0,0.0,0.0,0.0,0
127492000,0,0.97710854,-0.0023860587,0.009076297,-0.21255572,0.0,0.0,0.0,0.0,0
127504000,0,0.97710854,-0.0023861723,0.009077038,-0.21255572,0.0,0.0,0.0,0.0,0
127512000,0,0.97710854,-0.0023860186,0.009077748,-0.21255572,0.0,0.0,0.0,0.0,0
127524000,0,0.97710854,-0.0023861185,0.00907849,-0.21255572,0.0,0.0,0.0,0.0,0
127532000,0,0.97710854,-0.0023863707,0.009078602,-0.21255572,0.0,0.0,0.0,0.0,0
127544000,0,0.97710854,-0.0023867453,0.009078775,-0.21255572,0.0,0.0,0.0,0.0,0
127552000,0,0.97710854,-0.0023869928,0.009078889,-0.21255572,0.0,0.0,0.0,0.0,0
127564000,0,0.97710854,-0.0023873625,0.009079061,-0.21255574,0.0,0.0,0.0,0.0,0
127572000,0,0.9771085,-0.0023876077,0.009079176,-0.21255574,0.0,0.0,0.0,0.0,0
127584000,0,0.9771085,-0.002387974,0.009079348,-0.21255574,0.0,0.0,0.0,0.0,0
127592000,0,0.9771085,-0.0023881765,0.0090794815,-0.21255574,0.0,0.0,0.0,0.0,0
127604000,0,0.9771085,-0.002388499,0.009079672,-0.21255574,0.0,0.0,0.0,0.0,0
127612000,0,0.9771085,-0.0023887395,0.009079787,-0.21255574,0.0,0.0,0.0,0.0,0
127624000,0,0.9771085,-0.0023890962,0.009079958,-0.21255574,0.0,0.0,0.0,0.0,0
127632000,0,0.9771085,-0.002389298,0.00908009,-0.21255574,0.0,0.0,0.0,0.0,0
127644000,0,0.9771085,-0.002389647,0.009080264,-0.21255574,0.0,0.0,0.0,0.0,0
127652000,0,0.9771085,-0.00238988,0.009080379,-0.21255574,0.0,0.0,0.0,0.0,0
127664000,0,0.9771085,-0.0023902273,0.0090805525,-0.21255574,0.0,0.0,0.0,0.0,0
127672000,0,0.9771085,-0.0023904573,0.009080668,-0.21255574,0.0,0.0,0.0,0.0,0
127684000,0,0.9771085,-0.0023908003,0.009080841,-0.21255574,0.0,0.0,0.0,0.0,0
127692000,0,0.9771085,-0.0023910273,0.009080958,-0.21255574,0.0,0.0,0.0,0.0,0
127704000,0,0.9771085,-0.0023913656,0.009081132,-0.21255574,0.0,0.0,0.0,0.0,0
127712000,0,0.97710824,-0.0023332455,0.00911105,-0.21255629,0.0,0.0,0.0,0.0,0
127724000,0,0.97710824,-0.0023338236,0.0091112275,-0.21255629,0.0,0.0,0.0,0.0,0
127732000,0,0.97710824,-0.0023339908,0.009111418,-0.21255629,0.0,0.0,0.0,0.0,0
127744000,0,0.97710824,-0.002334238,0.00911171,-0.21255629,0.0,0.0,0.0,0.0,0
127752000,0,0.9771082,-0.0023344085,0.009111904,-0.21255629,0.0,0.0,0.0,0.0,0
127764000,0,0.9771082,-0.0023346492,0.009112198,-0.21255629,0.0,0.0,0.0,0.0,0
127772000,0,0.9771082,-0.0023348168,0.009112393,-0.21255629,0.0,0.0,0.0,0.0,0
127784000,0,0.9771082,-0.0023350632,0.009112688,-0.21255629,0.0,0.0,0.0,0.0,0
127792000,0,0.9771082,-0.0023352255,0.009112886,-0.21255629,0.0,0.0,0.0,0.0,0
127804000,0,0.9771082,-0.002335459,0.009113185,-0.21255629,0.0,0.0,0.0,0.0,0
127812000,0,0.9771082,-0.002335615,0.009113387,-0.21255629,0.0,0.0,0.0,0.0,0
127824000,0,0.9771082,-0.0023358488,0.00911369,-0.21255629,0.0,0.0,0.0,0.0,0
127832000,0,0.9771082,-0.0023360031,0.009113892,-0.21255629,0.0,0.0,0.0,0.0,0
127844000,0,0.9771082,-0.0023362264,0.009114199,-0.2125563,0.0,0.0,0.0,0.0,0
127852000,0,0.9771082,-0.0023363756,0.009114407,-0.2125563,0.0,0.0,0.0,0.0,0
127864000,0,0.9771082,-0.0023365996,0.009114719,-0.2125563,0.0,0.0,0.0,0.0,0
127872000,0,0.9771082,-0.0023367475,0.009114929,-0.2125563,0.0,0.0,0.0,0.0,0
127884000,0,0.9771082,-0.002336967,0.009115244,-0.2125563,0.0,0.0,0.0,0.0,0
127892000,0,0.9771082,-0.0023441843,0.00911264,-0.21255623,0.0,0.0,0.0,0.0,0
127904000,0,0.9771081,-0.0023275202,0.009122737,-0.21255636,0.0,0.0,0.0,0.0,0
127912000,0,0.97710806,-0.002312333,0.009131305,-0.21255648,0.0,0.0,0.0,0.0,0
127924000,0,0.9771079,-0.0022804132,0.009149005,-0.21255678,0.0,0.0,0.0,0.0,0
127932000,0,0.9771078,-0.002271163,0.009154692,-0.21255685,0.0,0.0,0.0,0.0,0
127944000,0,0.97710776,-0.0022465137,0.009165979,-0.21255708,0.0,0.0,0.0,0.0,0
127952000,0,0.9771077,-0.0022414413,0.009169192,-0.2125571,0.0,0.0,0.0,0.0,0
127964000,0,0.9771076,-0.0022058394,0.009187234,-0.21255742,0.0,0.0,0.0,0.0,0
127972000,0,0.9771078,-0.002250875,0.009158824,-0.21255696,0.0,0.0,0.0,0.0,0
127984000,0,0.9771077,-0.002212435,0.0091752885,-0.21255726,0.0,0.0,0.0,0.0,0
127992000,0,0.9771076,-0.0021921573,0.00918492,-0.21255742,0.0,0.0,0.0,0.0,0
128004000,0,0.9771075,-0.0021747064,0.009192425,-0.21255757,0.0,0.0,0.0,0.0,0
128012000,0,0.97710985,-0.0022486162,0.008963492,-0.21255589,0.0,0.0,0.0,0.0,0
128024000,0,0.97710985,-0.0022489494,0.008964435,-0.21255589,0.0,0.0,0.0,0.0,0
128032000,0,0.97710985,-0.0022490802,0.0089648,-0.21255589,0.0,0.0,0.0,0.0,0
128044000,0,0.97710985,-0.0022495175,0.00896543,-0.21255589,0.0,0.0,0.0,0.0,0
128052000,0,0.9771099,-0.002263096,0.00896005,-0.21255574,0.0,0.0,0.0,0.0,0
128064000,0,0.9771099,-0.002262159,0.008961389,-0.21255575,0.0,0.0,0.0,0.0,0
128072000,0,0.9771099,-0.0022616538,0.008962072,-0.21255577,0.0,0.0,0.0,0.0,0
128084000,0,0.97710985,-0.0022613397,0.008962888,-0.21255577,0.0,0.0,0.0,0.0,0
128092000,0,0.97710985,-0.002261164,0.00896346,-0.21255578,0.0,0.0,0.0,0.0,0
128104000,0,0.97710985,-0.0022609227,0.008964338,-0.21255578,0.0,0.0,0.0,0.0,0
128112000,0,0.97710985,-0.0022607716,0.0089649325,-0.2125558,0.0,0.0,0.0,0.0,0
128124000,0,0.97710985,-0.00226044,0.008965965,-0.2125558,0.0,0.0,0.0,0.0,0
128132000,0,0.97710985,-0.0022601727,0.008966689,-0.2125558,0.0,0.0,0.0,0.0,0
128144000,0,0.97710985,-0.0022599837,0.008967624,-0.21255581,0.0,0.0,0.0,0.0,0
128152000,0,0.9771098,-0.0022598593,0.008968251,-0.21255581,0.0,0.0,0.0,0.0,0
128164000,0,0.9771098,-0.002259542,0.008969315,-0.21255583,0.0,0.0,0.0,0.0,0
128172000,0,0.9771098,-0.002259419,0.008969953,-0.21255583,0.0,0.0,0.0,0.0,0
128184000,0,0.9771098,-0.002259091,0.008971024,-0.21255583,0.0,0.0,0.0,0.0,0
128192000,0,0.9771098,-0.002258966,0.008971671,-0.21255584,0.0,0.0,0.0,0.0,0
128204000,0,0.9771098,-0.002258778,0.008972636,-0.21255584,0.0,0.0,0.0,0.0,0
128212000,0,0.9771098,-0.002258653,0.008973277,-0.21255584,0.0,0.0,0.0,0.0,0
128224000,0,0.97710973,-0.0022584663,0.008974235,-0.21255586,0.0,0.0,0.0,0.0,0
128232000,0,0.97710973,-0.0022583422,0.008974871,-0.21255586,0.0,0.0,0.0,0.0,0
128244000,0,0.97710973,-0.0022581567,0.008975821,-0.21255586,0.0,0.0,0.0,0.0,0
128252000,0,0.97710973,-0.0022578612,0.008976549,-0.21255587,0.0,0.0,0.0,0.0,0
128264000,0,0.97710973,-0.0022576756,0.008977487,-0.21255587,0.0,0.0,0.0,0.0,0
128272000,0,0.97710973,-0.0022575532,0.008978106,-0.21255587,0.0,0.0,0.0,0.0,0
128284000,0,0.97710973,-0.0022573667,0.008979038,-0.21255589,0.0,0.0,0.0,0.0,0
128292000,0,0.97710973,-0.0022570593,0.008979762,-0.21255589,0.0,0.0,0.0,0.0,0
128304000,0,0.9771097,-0.0022566402,0.0089807995,-0.2125559,0.0,0.0,0.0,0.0,0
128312000,0,0.9771097,-0.0022564172,0.008981388,-0.2125559,0.0,0.0,0.0,0.0,0
128324000,0,0.9771097,-0.002255854,0.008982325,-0.21255592,0.0,0.0,0.0,0.0,0
128332000,0,0.9771097,-0.0022555336,0.008982786,-0.21255592,0.0,0.0,0.0,0.0,0
128344000,0,0.9771097,-0.002255163,0.008983485,-0.21255593,0.0,0.0,0.0,0.0,0
128352000,0,0.9771097,-0.0022548079,0.008984182,-0.21255593,0.0,0.0,0.0,0.0,0
128364000,0,0.9771097,-0.0022544048,0.008985099,-0.21255594,0.0,0.0,0.0,0.0,0
128372000,0,0.9771096,-0.00225431,0.008985605,-0.21255594,0.0,0.0,0.0,0.0,0
128384000,0,0.9771096,-0.0022538805,0.00898665,-0.21255596,0.0,0.0,0.0,0.0,0
128392000,0,0.9771096,-0.0022538125,0.008987166,-0.21255596,0.0,0.0,0.0,0.0,0
128404000,0,0.9771096,-0.002253716,0.0089879455,-0.21255597,0.0,0.0,0.0,0.0,0
128412000,0,0.9771096,-0.0022536526,0.008988467,-0.21255597,0.0,0.0,0.0,0.0,0
128424000,0,0.9771096,-0.002253559,0.008989251,-0.21255597,0.0,0.0,0.0,0.0,0
128432000,0,0.9771096,-0.0022534977,0.008989775,-0.21255599,0.0,0.0,0.0,0.0,0
128444000,0,0.9771096,-0.0022534102,0.008990558,-0.21255599,0.0,0.0,0.0,0.0,0
128452000,0,0.9771096,-0.0022533552,0.0089910785,-0.21255599,0.0,0.0,0.0,0.0,0
128464000,0,0.97710955,-0.002253191,0.008991998,-0.212556,0.0,0.0,0.0,0.0,0
128472000,0,0.97710955,-0.0022531438,0.0089925155,-0.212556,0.0,0.0,0.0,0.0,0
128484000,0,0.97710955,-0.0022529904,0.008993432,-0.21255602,0.0,0.0,0.0,0.0,0
128492000,0,0.97710955,-0.0022528633,0.008994093,-0.21255602,0.0,0.0,0.0,0.0,0
128504000,0,0.97710955,-0.002252812,0.00899487,-0.21255602,0.0,0.0,0.0,0.0,0
128512000,0,0.97710955,-0.0022526933,0.008995536,-0.21255603,0.0,0.0,0.0,0.0,0
128524000,0,0.97710955,-0.002252561,0.008996467,-0.21255603,0.0,0.0,0.0,0.0,0
128532000,0,0.9771095,-0.0022524449,0.008997137,-0.21255603,0.0,0.0,0.0,0.0,0
128544000,0,0.9771095,-0.0022523163,0.008998073,-0.21255605,0.0,0.0,0.0,0.0,0
128552000,0,0.9771095,-0.00225229,0.008998605,-0.21255605,0.0,0.0,0.0,0.0,0
128564000,0,0.9771095,-0.0022522511,0.0089994045,-0.21255605,0.0,0.0,0.0,0.0,0
128572000,0,0.9771095,-0.0022522255,0.008999938,-0.21255606,0.0,0.0,0.0,0.0,0
128584000,0,0.9771095,-0.0022521878,0.009000741,-0.21255606,0.0,0.0,0.0,0.0,0
128592000,0,0.9771095,-0.0022521631,0.009001277,-0.21255606,0.0,0.0,0.0,0.0,0
128604000,0,0.9771095,-0.0022521266,0.009002082,-0.21255606,0.0,0.0,0.0,0.0,0
128612000,0,0.97710943,-0.0022521021,0.009002619,-0.21255608,0.0,0.0,0.0,0.0,0
128624000,0,0.97710943,-0.0022519808,0.009003561,-0.21255608,0.0,0.0,0.0,0.0,0
128632000,0,0.97710943,-0.0022519536,0.009004095,-0.21255608,0.0,0.0,0.0,0.0,0
128644000,0,0.97710943,-0.0022518337,0.009005031,-0.2125561,0.0,0.0,0.0,0.0,0
128652000,0,0.97710943,-0.0022563364,0.0090040695,-0.21255603,0.0,0.0,0.0,0.0,0
128664000,0,0.97710943,-0.0022566183,0.009004872,-0.21255603,0.0,0.0,0.0,0.0,0
128672000,0,0.97710943,-0.0022565706,0.009005414,-0.21255605,0.0,0.0,0.0,0.0,0
128684000,0,0.97710943,-0.0022564498,0.009006354,-0.21255605,0.0,0.0,0.0,0.0,0
128692000,0,0.9771095,-0.0022690815,0.009000749,-0.21255593,0.0,0.0,0.0,0.0,0
128704000,0,0.97710943,-0.0022688436,0.009001838,-0.21255593,0.0,0.0,0.0,0.0,0
128712000,0,0.97710943,-0.0022688198,0.009002374,-0.21255593,0.0,0.0,0.0,0.0,0
128724000,0,0.97710943,-0.002268779,0.009003179,-0.21255594,0.0,0.0,0.0,0.0,0
128732000,0,0.97710943,-0.002268753,0.009003716,-0.21255594,0.0,0.0,0.0,0.0,0
128744000,0,0.97710943,-0.0022687148,0.009004521,-0.21255594,0.0,0.0,0.0,0.0,0
128752000,0,0.97710943,-0.0022686094,0.009005196,-0.21255596,0.0,0.0,0.0,0.0,0
128764000,0,0.97710943,-0.0022685698,0.009005999,-0.21255596,0.0,0.0,0.0,0.0,0
128772000,0,0.97710943,-0.0022685428,0.009006534,-0.21255596,0.0,0.0,0.0,0.0,0
128784000,0,0.97710943,-0.0022684217,0.009007472,-0.21255597,0.0,0.0,0.0,0.0,0
128792000,0,0.9771094,-0.0022683172,0.009008141,-0.21255597,0.0,0.0,0.0,0.0,0
128804000,0,0.97710943,-0.0022731721,0.009007357,-0.21255592,0.0,0.0,0.0,0.0,0
128812000,0,0.9771094,-0.0022730513,0.009008141,-0.21255593,0.0,0.0,0.0,0.0,0
128824000,0,0.9771094,-0.0022729854,0.009008948,-0.21255593,0.0,0.0,0.0,0.0,0
128832000,0,0.9771094,-0.0022729565,0.009009477,-0.21255593,0.0,0.0,0.0,0.0,0
128844000,0,0.9771094,-0.002277726,0.009008841,-0.21255589,0.0,0.0,0.0,0.0,0
128852000,0,0.9771094,-0.002277657,0.009009469,-0.21255589,0.0,0.0,0.0,0.0,0
128864000,0,0.9771094,-0.0022775175,0.009010419,-0.21255589,0.0,0.0,0.0,0.0,0
128872000,0,0.97710943,-0.0022896053,0.009005042,-0.21255577,0.0,0.0,0.0,0.0,0
128884000,0,0.97710943,-0.0022900396,0.009005726,-0.21255577,0.0,0.0,0.0,0.0,0
128892000,0,0.97710943,-0.0022899832,0.009006275,-0.21255578,0.0,0.0,0.0,0.0,0
128904000,0,0.9771094,-0.0022899378,0.00900708,-0.21255578,0.0,0.0,0.0,0.0,0
128912000,0,0.9771094,-0.0022899103,0.009007617,-0.21255578,0.0,0.0,0.0,0.0,0
128924000,0,0.9771094,-0.0022898703,0.009008421,-0.21255578,0.0,0.0,0.0,0.0,0
128932000,0,0.9771094,-0.002289844,0.009008956,-0.2125558,0.0,0.0,0.0,0.0,0
128944000,0,0.9771094,-0.0022897269,0.009009897,-0.2125558,0.0,0.0,0.0,0.0,0
128952000,0,0.9771094,-0.0022896975,0.00901043,-0.2125558,0.0,0.0,0.0,0.0,0
128964000,0,0.9771094,-0.0022895762,0.009011366,-0.21255581,0.0,0.0,0.0,0.0,0
128972000,0,0.9771094,-0.0022895476,0.009011895,-0.21255581,0.0,0.0,0.0,0.0,0
128984000,0,0.9771093,-0.0022895047,0.009012684,-0.21255581,0.0,0.0,0.0,0.0,0
128992000,0,0.9771094,-0.0022940072,0.009011723,-0.21255577,0.0,0.0,0.0,0.0,0
129004000,0,0.9771093,-0.002294238,0.009012682,-0.21255577,0.0,0.0,0.0,0.0,0
129012000,0,0.9771093,-0.002294187,0.009013222,-0.21255577,0.0,0.0,0.0,0.0,0
129024000,0,0.9771093,-0.0022941385,0.009014015,-0.21255578,0.0,0.0,0.0,0.0,0
129032000,0,0.9771093,-0.0022990045,0.009012967,-0.21255572,0.0,0.0,0.0,0.0,0
129044000,0,0.9771093,-0.0022988392,0.00901403,-0.21255572,0.0,0.0,0.0,0.0,0
129052000,0,0.9771093,-0.002298736,0.009014698,-0.21255574,0.0,0.0,0.0,0.0,0
129064000,0,0.9771093,-0.0023035868,0.009013915,-0.21255568,0.0,0.0,0.0,0.0,0
129072000,0,0.9771093,-0.002303517,0.009014543,-0.21255568,0.0,0.0,0.0,0.0,0
129084000,0,0.9771093,-0.0023034457,0.009015349,-0.21255569,0.0,0.0,0.0,0.0,0
129092000,0,0.9771093,-0.0023032723,0.009016162,-0.21255569,0.0,0.0,0.0,0.0,0
129104000,0,0.9771093,-0.0023079927,0.009015506,-0.21255565,0.0,0.0,0.0,0.0,0
129112000,0,0.9771093,-0.0023080145,0.009016023,-0.21255565,0.0,0.0,0.0,0.0,0
129124000,0,0.9771093,-0.0023079736,0.009016816,-0.21255565,0.0,0.0,0.0,0.0,0
129128000,0,0.9771093,-0.0023124886,0.009015592,-0.2125556,0.0,0.0,0.0,0.0,0
129144000,0,0.9771093,-0.0023127228,0.009016672,-0.2125556,0.0,0.0,0.0,0.0,0
129152000,0,0.9771093,-0.0023126262,0.009017344,-0.2125556,0.0,0.0,0.0,0.0,0
129164000,0,0.9771093,-0.0023171094,0.009016648,-0.21255556,0.0,0.0,0.0,0.0,0
129172000,0,0.9771093,-0.0023172745,0.00901737,-0.21255556,0.0,0.0,0.0,0.0,0
129184000,0,0.97710925,-0.0023172102,0.009018289,-0.21255556,0.0,0.0,0.0,0.0,0
129192000,0,0.97710925,-0.0023171739,0.009018818,-0.21255557,0.0,0.0,0.0,0.0,0
129204000,0,0.97710925,-0.0023220393,0.009018108,-0.21255551,0.0,0.0,0.0,0.0,0
129212000,0,0.97710925,-0.0023219702,0.009018734,-0.21255551,0.0,0.0,0.0,0.0,0
129224000,0,0.97710925,-0.0023218968,0.009019538,-0.21255553,0.0,0.0,0.0,0.0,0
129232000,0,0.97710925,-0.0023220459,0.0090197455,-0.21255553,0.0,0.0,0.0,0.0,0
129244000,0,0.97710913,-0.00229517,0.00903436,-0.21255577,0.0,0.0,0.0,0.0,0
129252000,0,0.9771092,-0.0023092248,0.009029138,-0.21255562,0.0,0.0,0.0,0.0,0
129264000,0,0.97710913,-0.0022936156,0.00903779,-0.21255575,0.0,0.0,0.0,0.0,0
129272000,0,0.9771087,-0.0022051772,0.009082731,-0.21255657,0.0,0.0,0.0,0.0,0
129284000,0,0.9771088,-0.0022248405,0.00907531,-0.21255636,0.0,0.0,0.0,0.0,0
129292000,0,0.97710884,-0.0022328338,0.009071075,-0.21255627,0.0,0.0,0.0,0.0,0
129304000,0,0.97710866,-0.002194824,0.009091242,-0.21255662,0.0,0.0,0.0,0.0,0
129312000,0,0.97710866,-0.0021916165,0.009092359,-0.21255663,0.0,0.0,0.0,0.0,0
129324000,0,0.9771084,-0.0021387099,0.0091196615,-0.21255712,0.0,0.0,0.0,0.0,0
129332000,0,0.97710854,-0.002165844,0.009104469,-0.21255687,0.0,0.0,0.0,0.0,0
129344000,0,0.9771084,-0.0021409786,0.00911605,-0.2125571,0.0,0.0,0.0,0.0,0
129352000,0,0.97710836,-0.002120674,0.009124347,-0.21255729,0.0,0.0,0.0,0.0,0
129364000,0,0.97710824,-0.0020899992,0.009140147,-0.21255755,0.0,0.0,0.0,0.0,0
129372000,0,0.97710824,-0.002090576,0.009140237,-0.21255752,0.0,0.0,0.0,0.0,0
129384000,0,0.97710824,-0.0020869258,0.009137985,-0.21255752,0.0,0.0,0.0,0.0,0
129392000,0,0.9771083,-0.0020859246,0.009135467,-0.21255751,0.0,0.0,0.0,0.0,0
129404000,0,0.9771081,-0.0020501334,0.0091519775,-0.21255782,0.0,0.0,0.0,0.0,0
129412000,0,0.9771092,-0.0021298795,0.00903996,-0.2125571,0.0,0.0,0.0,0.0,0
129424000,0,0.97710925,-0.0021363478,0.009034239,-0.21255699,0.0,0.0,0.0,0.0,0
129432000,0,0.97710896,-0.0020760505,0.009064332,-0.21255755,0.0,0.0,0.0,0.0,0
129444000,0,0.9771087,-0.0020181658,0.009094669,-0.21255806,0.0,0.0,0.0,0.0,0
129452000,0,0.9771088,-0.0020362863,0.009086394,-0.21255787,0.0,0.0,0.0,0.0,0
129464000,0,0.97710854,-0.0019906766,0.009110225,-0.21255827,0.0,0.0,0.0,0.0,0
129472000,0,0.97710866,-0.002012263,0.00909972,-0.21255805,0.0,0.0,0.0,0.0,0
129484000,0,0.9771087,-0.0020257912,0.009091912,-0.21255793,0.0,0.0,0.0,0.0,0
129492000,0,0.9771083,-0.0019376571,0.009136127,-0.21255872,0.0,0.0,0.0,0.0,0
129504000,0,0.97710854,-0.00197851,0.009112447,-0.21255828,0.0,0.0,0.0,0.0,0
129512000,0,0.97710854,-0.001973849,0.0091115115,-0.21255831,0.0,0.0,0.0,0.0,0
129524000,0,0.97710824,-0.0019054789,0.009145886,-0.2125589,0.0,0.0,0.0,0.0,0
129532000,0,0.9771107,-0.0019860407,0.008888446,-0.21255784,0.0,0.0,0.0,0.0,0
129544000,0,0.9771108,-0.0020159842,0.008877918,-0.2125575,0.0,0.0,0.0,0.0,0
129552000,0,0.97711086,-0.0020272492,0.008874769,-0.21255736,0.0,0.0,0.0,0.0,0
129564000,0,0.9771109,-0.0020441676,0.008870002,-0.21255717,0.0,0.0,0.0,0.0,0
129572000,0,0.9771109,-0.0020554364,0.008866828,-0.21255705,0.0,0.0,0.0,0.0,0
129584000,0,0.977111,-0.0020723375,0.008862067,-0.21255685,0.0,0.0,0.0,0.0,0
129592000,0,0.977111,-0.0020836052,0.008858893,-0.21255672,0.0,0.0,0.0,0.0,0
129604000,0,0.97711104,-0.0021005073,0.008854132,-0.21255653,0.0,0.0,0.0,0.0,0
129612000,0,0.9771111,-0.002111776,0.008850958,-0.2125564,0.0,0.0,0.0,0.0,0
129624000,0,0.97711116,-0.002128681,0.008846197,-0.21255621,0.0,0.0,0.0,0.0,0
129632000,0,0.97711116,-0.0021399516,0.008843022,-0.21255608,0.0,0.0,0.0,0.0,0
129644000,0,0.9771113,-0.002166211,0.008832781,-0.21255581,0.0,0.0,0.0,0.0,0
129652000,0,0.9771113,-0.0021773418,0.008829671,-0.21255568,0.0,0.0,0.0,0.0,0
129664000,0,0.9771111,-0.0021373963,0.008853162,-0.21255603,0.0,0.0,0.0,0.0,0
129672000,0,0.9771111,-0.0021492068,0.008849742,-0.2125559,0.0,0.0,0.0,0.0,0
129684000,0,0.9771109,-0.0021094028,0.008873043,-0.21255626,0.0,0.0,0.0,0.0,0
129692000,0,0.977111,-0.002121231,0.008869616,-0.21255612,0.0,0.0,0.0,0.0,0
129704000,0,0.9771108,-0.0020856962,0.008890868,-0.21255644,0.0,0.0,0.0,0.0,0
129712000,0,0.9771108,-0.0020979566,0.008887256,-0.2125563,0.0,0.0,0.0,0.0,0
129724000,0,0.9771106,-0.0020590764,0.00890979,-0.21255665,0.0,0.0,0.0,0.0,0
129732000,0,0.97711045,-0.0020221774,0.0089308815,-0.21255696,0.0,0.0,0.0,0.0,0
129744000,0,0.9771105,-0.002037585,0.008925955,-0.2125568,0.0,0.0,0.0,0.0,0
129752000,0,0.9771103,-0.002006241,0.0089441,-0.21255706,0.0,0.0,0.0,0.0,0
129764000,0,0.9771102,-0.001980579,0.008959836,-0.21255729,0.0,0.0,0.0,0.0,0
129772000,0,0.97711027,-0.0020042125,0.008948091,-0.21255706,0.0,0.0,0.0,0.0,0
129784000,0,0.97711,-0.0019521267,0.008977187,-0.21255752,0.0,0.0,0.0,0.0,0
129792000,0,0.9771101,-0.0019654853,0.008972044,-0.21255739,0.0,0.0,0.0,0.0,0
129804000,0,0.97711,-0.0019521958,0.008981137,-0.21255748,0.0,0.0,0.0,0.0,0
129812000,0,0.9771099,-0.0019312045,0.008993198,-0.21255766,0.0,0.0,0.0,0.0,0
129824000,0,0.97710985,-0.0019210597,0.009000543,-0.21255773,0.0,0.0,0.0,0.0,0
129832000,0,0.9771098,-0.0019161977,0.009002829,-0.21255776,0.0,0.0,0.0,0.0,0
129844000,0,0.9771095,-0.0018524517,0.009037111,-0.21255834,0.0,0.0,0.0,0.0,0
129852000,0,0.9771096,-0.0018793569,0.009024384,-0.21255806,0.0,0.0,0.0,0.0,0
129864000,0,0.9771093,-0.0018185062,0.009056884,-0.21255861,0.0,0.0,0.0,0.0,0
129872000,0,0.97710943,-0.0018485066,0.009042133,-0.2125583,0.0,0.0,0.0,0.0,0
129884000,0,0.9771092,-0.0018001113,0.00906796,-0.21255873,0.0,0.0,0.0,0.0,0
129892000,0,0.97710943,-0.0018388956,0.009043986,-0.21255836,0.0,0.0,0.0,0.0,0
129904000,0,0.97710913,-0.0017709094,0.00907799,-0.21255894,0.0,0.0,0.0,0.0,0
129912000,0,0.97710943,-0.001823598,0.009044148,-0.21255845,0.0,0.0,0.0,0.0,0
129924000,0,0.9771088,-0.0016876884,0.009115401,-0.21255967,0.0,0.0,0.0,0.0,0
129932000,0,0.9771091,-0.0017408169,0.009082939,-0.2125591,0.0,0.0,0.0,0.0,0
129944000,0,0.9771112,-0.0016708893,0.008880018,-0.21255851,0.0,0.0,0.0,0.0,0
129952000,0,0.9771114,-0.001715006,0.008859168,-0.21255809,0.0,0.0,0.0,0.0,0
129964000,0,0.97711164,-0.0017659569,0.008836563,-0.21255757,0.0,0.0,0.0,0.0,0
129972000,0,0.9771117,-0.0017842425,0.008830619,-0.21255736,0.0,0.0,0.0,0.0,0
129984000,0,0.97711176,-0.0018038325,0.008824736,-0.21255712,0.0,0.0,0.0,0.0,0
129992000,0,0.9771118,-0.0018149927,0.008821605,-0.212557,0.0,0.0,0.0,0.0,0
130004000,0,0.9771119,-0.0018318595,0.008816856,-0.21255681,0.0,0.0,0.0,0.0,0
130012000,0,0.97711194,-0.0018431214,0.008813684,-0.21255669,0.0,0.0,0.0,0.0,0
130024000,0,0.97711194,-0.0018600235,0.008808922,-0.2125565,0.0,0.0,0.0,0.0,0
130032000,0,0.9771121,-0.0018896668,0.008794815,-0.21255621,0.0,0.0,0.0,0.0,0
130044000,0,0.9771122,-0.001917029,0.008783997,-0.21255593,0.0,0.0,0.0,0.0,0
130052000,0,0.97711223,-0.0019283145,0.008780814,-0.21255581,0.0,0.0,0.0,0.0,0
130064000,0,0.9771123,-0.0019452191,0.008776051,-0.21255562,0.0,0.0,0.0,0.0,0
130072000,0,0.9771123,-0.0019564938,0.008772873,-0.21255548,0.0,0.0,0.0,0.0,0
130084000,0,0.97711235,-0.0019734106,0.008768106,-0.21255529,0.0,0.0,0.0,0.0,0
130092000,0,0.9771124,-0.0019846905,0.008764926,-0.21255517,0.0,0.0,0.0,0.0,0
130104000,0,0.9771123,-0.001972406,0.008775069,-0.21255526,0.0,0.0,0.0,0.0,0
130112000,0,0.97711235,-0.0019791897,0.008773321,-0.21255518,0.0,0.0,0.0,0.0,0
130124000,0,0.97711205,-0.0019324443,0.008802043,-0.21255559,0.0,0.0,0.0,0.0,0
130132000,0,0.9771121,-0.0019443053,0.008798585,-0.21255545,0.0,0.0,0.0,0.0,0
130144000,0,0.9771119,-0.0019021783,0.008825283,-0.21255583,0.0,0.0,0.0,0.0,0
130152000,0,0.97711194,-0.0019148977,0.008821434,-0.21255568,0.0,0.0,0.0,0.0,0
130164000,0,0.9771117,-0.001876547,0.008845902,-0.21255602,0.0,0.0,0.0,0.0,0
130172000,0,0.97711176,-0.0018908349,0.008841201,-0.21255586,0.0,0.0,0.0,0.0,0
130184000,0,0.9771115,-0.0018528551,0.008865052,-0.21255618,0.0,0.0,0.0,0.0,0
130192000,0,0.9771116,-0.0018675692,0.00885998,-0.21255602,0.0,0.0,0.0,0.0,0
130204000,0,0.97711146,-0.001847377,0.008875608,-0.21255612,0.0,0.0,0.0,0.0,0
130212000,0,0.9771115,-0.001853238,0.008871517,-0.21255606,0.0,0.0,0.0,0.0,0
130224000,0,0.97711223,-0.00197733,0.008791175,-0.21255489,0.0,0.0,0.0,0.0,0
130232000,0,0.977113,-0.0021086808,0.008706006,-0.21255365,0.0,0.0,0.0,0.0,0
130244000,0,0.97711426,-0.0023436067,0.00855356,-0.21255144,0.0,0.0,0.0,0.0,0
130252000,0,0.97711515,-0.0025107407,0.008445027,-0.21254987,0.0,0.0,0.0,0.0,0
130264000,0,0.97711515,-0.00250928,0.008443755,-0.21254991,0.0,0.0,0.0,0.0,0
130272000,0,0.97711515,-0.0025065315,0.008443132,-0.21254997,0.0,0.0,0.0,0.0,0
130284000,0,0.97711515,-0.0025026342,0.008441228,-0.21255006,0.0,0.0,0.0,0.0,0
130292000,0,0.97711515,-0.002500907,0.008439357,-0.21255013,0.0,0.0,0.0,0.0,0
130304000,0,0.97711515,-0.0024986614,0.008437318,-0.21255025,0.0,0.0,0.0,0.0,0
130312000,0,0.97711515,-0.002496833,0.008436207,-0.21255033,0.0,0.0,0.0,0.0,0
130324000,0,0.97711515,-0.0024939438,0.008434613,-0.21255046,0.0,0.0,0.0,0.0,0
130332000,0,0.97711515,-0.0024919335,0.008433576,-0.21255055,0.0,0.0,0.0,0.0,0
130344000,0,0.97711515,-0.0024887351,0.008432097,-0.2125507,0.0,0.0,0.0,0.0,0
130352000,0,0.97711515,-0.0024864476,0.008431167,-0.2125508,0.0,0.0,0.0,0.0,0
130364000,0,0.97711515,-0.002482722,0.008429872,-0.2125509,0.0,0.0,0.0,0.0,0
130372000,0,0.97711515,-0.0024800412,0.008429025,-0.21255095,0.0,0.0,0.0,0.0,0
130384000,0,0.97711515,-0.0024755988,0.008427285,-0.21255106,0.0,0.0,0.0,0.0,0
130392000,0,0.97711515,-0.002470021,0.00842788,-0.21255115,0.0,0.0,0.0,0.0,0
130404000,0,0.97711504,-0.0024532336,0.00843799,-0.21255131,0.0,0.0,0.0,0.0,0
130412000,0,0.97711504,-0.0024458505,0.008442076,-0.21255137,0.0,0.0,0.0,0.0,0
130424000,0,0.97711504,-0.0024465974,0.008440244,-0.21255134,0.0,0.0,0.0,0.0,0
130432000,0,0.9771151,-0.0024565277,0.008433478,-0.21255124,0.0,0.0,0.0,0.0,0
130444000,0,0.9771153,-0.0024862855,0.008414193,-0.21255094,0.0,0.0,0.0,0.0,0
130452000,0,0.9771153,-0.0024847575,0.0084133595,-0.212551,0.0,0.0,0.0,0.0,0
130464000,0,0.9771153,-0.0024797337,0.008413513,-0.21255109,0.0,0.0,0.0,0.0,0
130472000,0,0.9771153,-0.0024816187,0.008411381,-0.21255104,0.0,0.0,0.0,0.0,0
130484000,0,0.97711533,-0.0024912145,0.008404111,-0.21255095,0.0,0.0,0.0,0.0,0
130492000,0,0.97711533,-0.00248857,0.008403265,-0.21255101,0.0,0.0,0.0,0.0,0
130504000,0,0.97711533,-0.0024827367,0.008403849,-0.21255112,0.0,0.0,0.0,0.0,0
130512000,0,0.97711533,-0.0024819146,0.008403397,-0.2125511,0.0,0.0,0.0,0.0,0
130524000,0,0.9771154,-0.0024929016,0.008395412,-0.21255097,0.0,0.0,0.0,0.0,0
130532000,0,0.9771154,-0.0024907247,0.008394706,-0.21255103,0.0,0.0,0.0,0.0,0
130544000,0,0.9771154,-0.0024857204,0.008395583,-0.21255109,0.0,0.0,0.0,0.0,0
130552000,0,0.9771154,-0.002488867,0.008392638,-0.21255104,0.0,0.0,0.0,0.0,0
130564000,0,0.97711545,-0.0024989084,0.008385055,-0.21255094,0.0,0.0,0.0,0.0,0
130572000,0,0.97711545,-0.002496114,0.008384225,-0.21255101,0.0,0.0,0.0,0.0,0
130584000,0,0.97711545,-0.0024896513,0.008385037,-0.21255112,0.0,0.0,0.0,0.0,0
130592000,0,0.97711545,-0.0024869787,0.008385745,-0.21255113,0.0,0.0,0.0,0.0,0
130604000,0,0.9771155,-0.0024931398,0.008380436,-0.21255104,0.0,0.0,0.0,0.0,0
130612000,0,0.9771156,-0.002505206,0.008372361,-0.21255091,0.0,0.0,0.0,0.0,0
130624000,0,0.9771156,-0.0025018035,0.008371187,-0.212551,0.0,0.0,0.0,0.0,0
130632000,0,0.9771156,-0.0024986349,0.008370174,-0.21255107,0.0,0.0,0.0,0.0,0
130644000,0,0.9771156,-0.0024891389,0.008373679,-0.21255118,0.0,0.0,0.0,0.0,0
130652000,0,0.9771155,-0.0024836808,0.008376243,-0.21255124,0.0,0.0,0.0,0.0,0
130664000,0,0.9771155,-0.002483385,0.008374867,-0.2125512,0.0,0.0,0.0,0.0,0
130672000,0,0.9771156,-0.002489783,0.008369913,-0.21255113,0.0,0.0,0.0,0.0,0
130684000,0,0.9771157,-0.0025111123,0.008355712,-0.21255091,0.0,0.0,0.0,0.0,0
130692000,0,0.9771157,-0.002509224,0.008354942,-0.21255095,0.0,0.0,0.0,0.0,0
130704000,0,0.9771157,-0.0025026747,0.008355751,-0.21255107,0.0,0.0,0.0,0.0,0
130712000,0,0.9771157,-0.0025003229,0.008356177,-0.21255109,0.0,0.0,0.0,0.0,0
130724000,0,0.97711575,-0.0025076394,0.008350076,-0.21255098,0.0,0.0,0.0,0.0,0
130732000,0,0.97711575,-0.0025125663,0.008345878,-0.21255094,0.0,0.0,0.0,0.0,0
130744000,0,0.97711575,-0.0025061038,0.008346658,-0.21255106,0.0,0.0,0.0,0.0,0
130752000,0,0.97711575,-0.0025043555,0.008346668,-0.21255106,0.0,0.0,0.0,0.0,0
130764000,0,0.9771158,-0.0025133386,0.008339549,-0.21255095,0.0,0.0,0.0,0.0,0
130772000,0,0.97711587,-0.002519141,0.008334846,-0.2125509,0.0,0.0,0.0,0.0,0
130784000,0,0.97711587,-0.0025143798,0.008333572,-0.21255101,0.0,0.0,0.0,0.0,0
130792000,0,0.9771158,-0.0025085155,0.008336221,-0.21255107,0.0,0.0,0.0,0.0,0
130804000,0,0.97711587,-0.0025088938,0.008334306,-0.21255104,0.0,0.0,0.0,0.0,0
130812000,0,0.9771159,-0.0025163726,0.008328623,-0.21255095,0.0,0.0,0.0,0.0,0
130824000,0,0.9771159,-0.002520114,0.008323744,-0.21255095,0.0,0.0,0.0,0.0,0
130832000,0,0.9771159,-0.0025148746,0.008325039,-0.21255103,0.0,0.0,0.0,0.0,0
130844000,0,0.9771159,-0.0025129197,0.008324579,-0.21255103,0.0,0.0,0.0,0.0,0
130852000,0,0.977116,-0.002518835,0.00831976,-0.21255095,0.0,0.0,0.0,0.0,0
130864000,0,0.977116,-0.002520566,0.008316826,-0.21255094,0.0,0.0,0.0,0.0,0
130872000,0,0.97711605,-0.0025221342,0.008314654,-0.21255091,0.0,0.0,0.0,0.0,0
130884000,0,0.9771161,-0.0025306726,0.008307509,-0.21255082,0.0,0.0,0.0,0.0,0
130892000,0,0.97711605,-0.0025274733,0.008306707,-0.21255091,0.0,0.0,0.0,0.0,0
130904000,0,0.97711605,-0.0025199896,0.0083087655,-0.212551,0.0,0.0,0.0,0.0,0
130912000,0,0.97711605,-0.0025193018,0.008308009,-0.212551,0.0,0.0,0.0,0.0,0
130924000,0,0.9771161,-0.002529219,0.008300127,-0.21255088,0.0,0.0,0.0,0.0,0
130932000,0,0.97711617,-0.0025349585,0.008295342,-0.21255083,0.0,0.0,0.0,0.0,0
130944000,0,0.97711617,-0.0025298074,0.008294003,-0.21255095,0.0,0.0,0.0,0.0,0
130952000,0,0.97711617,-0.0025222863,0.008297636,-0.21255103,0.0,0.0,0.0,0.0,0
130964000,0,0.9771161,-0.0025172946,0.008299038,-0.21255107,0.0,0.0,0.0,0.0,0
130972000,0,0.97711617,-0.0025194895,0.008296438,-0.21255104,0.0,0.0,0.0,0.0,0
130984000,0,0.9771162,-0.0025325438,0.008286647,-0.2125509,0.0,0.0,0.0,0.0,0
130992000,0,0.9771163,-0.0025391986,0.008281337,-0.21255082,0.0,0.0,0.0,0.0,0
131004000,0,0.9771163,-0.0025317338,0.008282445,-0.21255095,0.0,0.0,0.0,0.0,0
131012000,0,0.9771162,-0.002527664,0.008283841,-0.21255098,0.0,0.0,0.0,0.0,0
131024000,0,0.9771163,-0.0025306132,0.008280108,-0.21255095,0.0,0.0,0.0,0.0,0
131032000,0,0.97711635,-0.002539598,0.008273333,-0.21255085,0.0,0.0,0.0,0.0,0
131044000,0,0.9771164,-0.0025439474,0.008267917,-0.21255083,0.0,0.0,0.0,0.0,0
131052000,0,0.9771164,-0.0025402834,0.008266903,-0.21255092,0.0,0.0,0.0,0.0,0
131064000,0,0.97711635,-0.0025283073,0.008272722,-0.21255104,0.0,0.0,0.0,0.0,0
131072000,0,0.97711635,-0.0025237084,0.008274427,-0.21255107,0.0,0.0,0.0,0.0,0
131084000,0,0.97711635,-0.0025239822,0.008272346,-0.21255107,0.0,0.0,0.0,0.0,0
131092000,0,0.9771164,-0.0025298605,0.00826735,-0.212551,0.0,0.0,0.0,0.0,0
131104000,0,0.97711647,-0.0025485978,0.008254048,-0.2125508,0.0,0.0,0.0,0.0,0
131112000,0,0.97711647,-0.0025450534,0.008254891,-0.21255085,0.0,0.0,0.0,0.0,0
131124000,0,0.9771165,-0.0025488806,0.008250496,-0.2125508,0.0,0.0,0.0,0.0,0
131132000,0,0.9771165,-0.0025525568,0.008246617,-0.21255077,0.0,0.0,0.0,0.0,0
131144000,0,0.9771165,-0.0025458597,0.008247988,-0.21255086,0.0,0.0,0.0,0.0,0
131152000,0,0.9771165,-0.0025470715,0.008245894,-0.21255085,0.0,0.0,0.0,0.0,0
131164000,0,0.9771166,-0.002553707,0.008239435,-0.21255079,0.0,0.0,0.0,0.0,0
131172000,0,0.9771166,-0.0025496166,0.008240656,-0.21255083,0.0,0.0,0.0,0.0,0
131184000,0,0.97711664,-0.0025571275,0.008233881,-0.21255076,0.0,0.0,0.0,0.0,0
131192000,0,0.97711664,-0.0025525733,0.008235047,-0.21255082,0.0,0.0,0.0,0.0,0
131204000,0,0.97711664,-0.0025560826,0.008230773,-0.21255077,0.0,0.0,0.0,0.0,0
131212000,0,0.9771167,-0.0025599075,0.008226748,-0.21255074,0.0,0.0,0.0,0.0,0
131224000,0,0.9771167,-0.0025532045,0.008228049,-0.21255085,0.0,0.0,0.0,0.0,0
131232000,0,0.9771167,-0.0025545985,0.008225799,-0.21255083,0.0,0.0,0.0,0.0,0
131244000,0,0.97711676,-0.0025615024,0.008219085,-0.21255077,0.0,0.0,0.0,0.0,0
131252000,0,0.97711676,-0.0025571936,0.008220397,-0.21255082,0.0,0.0,0.0,0.0,0
131264000,0,0.9771168,-0.0025641427,0.008213884,-0.21255076,0.0,0.0,0.0,0.0,0
131272000,0,0.9771168,-0.0025691232,0.008209161,-0.21255071,0.0,0.0,0.0,0.0,0
131284000,0,0.9771168,-0.0025633557,0.008207799,-0.21255088,0.0,0.0,0.0,0.0,0
131292000,0,0.97711676,-0.0025539992,0.00821238,-0.21255095,0.0,0.0,0.0,0.0,0
131304000,0,0.97711676,-0.0025430562,0.008217337,-0.21255106,0.0,0.0,0.0,0.0,0
131312000,0,0.97711676,-0.0025388144,0.008218652,-0.2125511,0.0,0.0,0.0,0.0,0
131324000,0,0.97711676,-0.0025384473,0.008216803,-0.2125511,0.0,0.0,0.0,0.0,0
131332000,0,0.9771168,-0.0025429558,0.008212541,-0.21255106,0.0,0.0,0.0,0.0,0
131344000,0,0.9771169,-0.0025579259,0.00820093,-0.21255092,0.0,0.0,0.0,0.0,0
131352000,0,0.977117,-0.0025739735,0.008189537,-0.21255077,0.0,0.0,0.0,0.0,0
131364000,0,0.97711694,-0.002568802,0.008190604,-0.21255083,0.0,0.0,0.0,0.0,0
131372000,0,0.977117,-0.00257031,0.008188195,-0.21255082,0.0,0.0,0.0,0.0,0
131384000,0,0.977117,-0.0025766897,0.00818163,-0.21255077,0.0,0.0,0.0,0.0,0
131392000,0,0.977117,-0.0025713756,0.0081835,-0.21255083,0.0,0.0,0.0,0.0,0
131404000,0,0.97711706,-0.0025753563,0.008178758,-0.21255079,0.0,0.0,0.0,0.0,0
131412000,0,0.9771171,-0.0025862514,0.008170327,-0.2125507,0.0,0.0,0.0,0.0,0
131424000,0,0.9771171,-0.0025812055,0.008169201,-0.21255082,0.0,0.0,0.0,0.0,0
131432000,0,0.97711706,-0.002573192,0.008171479,-0.21255094,0.0,0.0,0.0,0.0,0
131444000,0,0.977117,-0.002556138,0.0081802765,-0.21255109,0.0,0.0,0.0,0.0,0
131452000,0,0.977117,-0.002544468,0.008186302,-0.21255119,0.0,0.0,0.0,0.0,0
131464000,0,0.97711694,-0.002528245,0.008194486,-0.21255134,0.0,0.0,0.0,0.0,0
131472000,0,0.9771169,-0.0025191032,0.008198847,-0.21255143,0.0,0.0,0.0,0.0,0
131484000,0,0.9771169,-0.002509128,0.008202982,-0.21255152,0.0,0.0,0.0,0.0,0
131492000,0,0.9771169,-0.0025055893,0.008203747,-0.21255156,0.0,0.0,0.0,0.0,0
131504000,0,0.9771169,-0.0025058826,0.008201307,-0.21255156,0.0,0.0,0.0,0.0,0
131512000,0,0.97711694,-0.002510292,0.00819698,-0.21255152,0.0,0.0,0.0,0.0,0
131524000,0,0.977117,-0.0025239491,0.008185971,-0.2125514,0.0,0.0,0.0,0.0,0
131532000,0,0.97711706,-0.0025381302,0.008175373,-0.21255128,0.0,0.0,0.0,0.0,0
131544000,0,0.97711724,-0.0025676305,0.008154187,-0.21255101,0.0,0.0,0.0,0.0,0
131552000,0,0.97711736,-0.0025931401,0.008136303,-0.21255079,0.0,0.0,0.0,0.0,0
131564000,0,0.9771174,-0.0026051085,0.008125445,-0.21255073,0.0,0.0,0.0,0.0,0
131572000,0,0.9771174,-0.0026000526,0.008124595,-0.21255085,0.0,0.0,0.0,0.0,0
131584000,0,0.97711736,-0.0025783442,0.0081341555,-0.2125511,0.0,0.0,0.0,0.0,0
131592000,0,0.97711724,-0.002552428,0.008149308,-0.21255133,0.0,0.0,0.0,0.0,0
131604000,0,0.977117,-0.0025015094,0.008179718,-0.21255179,0.0,0.0,0.0,0.0,0
131612000,0,0.9771168,-0.0024603913,0.008204574,-0.21255216,0.0,0.0,0.0,0.0,0
131624000,0,0.9771165,-0.0023892103,0.008247937,-0.2125528,0.0,0.0,0.0,0.0,0
131632000,0,0.9771163,-0.0023360085,0.008280523,-0.21255328,0.0,0.0,0.0,0.0,0
131644000,0,0.9771158,-0.0022482488,0.008334493,-0.21255405,0.0,0.0,0.0,0.0,0
131652000,0,0.9771155,-0.0021845917,0.008373769,-0.21255462,0.0,0.0,0.0,0.0,0
131664000,0,0.9771137,-0.0022435822,0.008557332,-0.2125549,0.0,0.0,0.0,0.0,0
131672000,0,0.97711444,-0.0023659307,0.008473362,-0.21255374,0.0,0.0,0.0,0.0,0
131684000,0,0.9771156,-0.0025767097,0.00832997,-0.21255174,0.0,0.0,0.0,0.0,0
131692000,0,0.9771156,-0.0025747367,0.008329747,-0.21255177,0.0,0.0,0.0,0.0,0
131704000,0,0.9771156,-0.0025726524,0.008328958,-0.2125518,0.0,0.0,0.0,0.0,0
131712000,0,0.9771156,-0.0025712934,0.008328416,-0.21255183,0.0,0.0,0.0,0.0,0
131724000,0,0.9771156,-0.0025692468,0.008327602,-0.21255186,0.0,0.0,0.0,0.0,0
131732000,0,0.9771156,-0.002567876,0.00832706,-0.21255189,0.0,0.0,0.0,0.0,0
131744000,0,0.9771156,-0.0025658088,0.008326246,-0.21255192,0.0,0.0,0.0,0.0,0
131752000,0,0.9771156,-0.002564424,0.008325704,-0.21255194,0.0,0.0,0.0,0.0,0
131764000,0,0.9771156,-0.0025623362,0.008324891,-0.21255198,0.0,0.0,0.0,0.0,0
131772000,0,0.9771156,-0.0025609399,0.008324349,-0.212552,0.0,0.0,0.0,0.0,0
131784000,0,0.97711563,-0.002558847,0.008323539,-0.21255204,0.0,0.0,0.0,0.0,0
131792000,0,0.97711563,-0.002557453,0.008323,-0.21255206,0.0,0.0,0.0,0.0,0
131804000,0,0.97711563,-0.0025553643,0.008322192,-0.21255209,0.0,0.0,0.0,0.0,0
131812000,0,0.97711563,-0.0025539733,0.008321656,-0.21255212,0.0,0.0,0.0,0.0,0
131824000,0,0.97711563,-0.0025518893,0.008320852,-0.21255215,0.0,0.0,0.0,0.0,0
131832000,0,0.9771157,-0.0025672668,0.008309205,-0.212552,0.0,0.0,0.0,0.0,0
131844000,0,0.9771157,-0.0025661036,0.008308364,-0.21255201,0.0,0.0,0.0,0.0,0
131852000,0,0.97711575,-0.0025646237,0.008307826,-0.21255204,0.0,0.0,0.0,0.0,0
131864000,0,0.97711575,-0.0025624267,0.008307011,-0.21255207,0.0,0.0,0.0,0.0,0
131872000,0,0.97711575,-0.002560964,0.008306469,-0.2125521,0.0,0.0,0.0,0.0,0
131884000,0,0.97711575,-0.0025587725,0.008305658,-0.21255213,0.0,0.0,0.0,0.0,0
131892000,0,0.97711575,-0.002557314,0.0083051175,-0.21255216,0.0,0.0,0.0,0.0,0
131904000,0,0.97711575,-0.002555137,0.008304307,-0.2125522,0.0,0.0,0.0,0.0,0
131912000,0,0.97711575,-0.0025536914,0.008303766,-0.21255223,0.0,0.0,0.0,0.0,0
131924000,0,0.9771158,-0.0025659327,0.008293761,-0.21255212,0.0,0.0,0.0,0.0,0
131932000,0,0.9771158,-0.0025643054,0.008293262,-0.21255215,0.0,0.0,0.0,0.0,0
131944000,0,0.9771158,-0.002562039,0.00829244,-0.21255219,0.0,0.0,0.0,0.0,0
131952000,0,0.9771158,-0.0025605224,0.008291891,-0.21255222,0.0,0.0,0.0,0.0,0
131964000,0,0.9771158,-0.0025580353,0.008291088,-0.21255226,0.0,0.0,0.0,0.0,0
131972000,0,0.9771158,-0.0025561994,0.00829057,-0.21255231,0.0,0.0,0.0,0.0,0
131984000,0,0.97711587,-0.0025644128,0.00828273,-0.21255225,0.0,0.0,0.0,0.0,0
131992000,0,0.97711587,-0.0025627902,0.008282151,-0.21255228,0.0,0.0,0.0,0.0,0
132004000,0,0.97711587,-0.0025591548,0.008281484,-0.21255234,0.0,0.0,0.0,0.0,0
132012000,0,0.97711587,-0.002556538,0.008281102,-0.2125524,0.0,0.0,0.0,0.0,0
132024000,0,0.9771159,-0.0025614349,0.008275162,-0.21255238,0.0,0.0,0.0,0.0,0
132032000,0,0.9771159,-0.0025594523,0.008274673,-0.21255241,0.0,0.0,0.0,0.0,0
132044000,0,0.9771159,-0.0025550616,0.0082742125,-0.21255252,0.0,0.0,0.0,0.0,0
132052000,0,0.9771159,-0.0025593447,0.008269696,-0.21255252,0.0,0.0,0.0,0.0,0
132064000,0,0.9771159,-0.0025556488,0.008269102,-0.2125526,0.0,0.0,0.0,0.0,0
132072000,0,0.977116,-0.0025585545,0.008265353,-0.2125526,0.0,0.0,0.0,0.0,0
132084000,0,0.977116,-0.002554554,0.008264553,-0.21255271,0.0,0.0,0.0,0.0,0
132092000,0,0.977116,-0.0025574595,0.0082611935,-0.2125527,0.0,0.0,0.0,0.0,0
132104000,0,0.977116,-0.0025533906,0.008258716,-0.21255285,0.0,0.0,0.0,0.0,0
132112000,0,0.977116,-0.002554301,0.0082564475,-0.21255286,0.0,0.0,0.0,0.0,0
132124000,0,0.97711605,-0.0025615136,0.008249138,-0.21255283,0.0,0.0,0.0,0.0,0
132132000,0,0.97711605,-0.0025597047,0.008248229,-0.21255289,0.0,0.0,0.0,0.0,0
132144000,0,0.97711605,-0.0025554036,0.008246702,-0.21255308,0.0,0.0,0.0,0.0,0
132152000,0,0.97711605,-0.0025523505,0.008246413,-0.21255317,0.0,0.0,0.0,0.0,0
132164000,0,0.9771161,-0.0025594789,0.008239796,-0.2125531,0.0,0.0,0.0,0.0,0
132172000,0,0.97711605,-0.002556303,0.008238902,-0.21255322,0.0,0.0,0.0,0.0,0
132184000,0,0.97711605,-0.0025507659,0.008239511,-0.2125533,0.0,0.0,0.0,0.0,0
132192000,0,0.9771161,-0.0025548055,0.008235592,-0.21255326,0.0,0.0,0.0,0.0,0
132204000,0,0.9771161,-0.0025569128,0.008231162,-0.21255328,0.0,0.0,0.0,0.0,0
132212000,0,0.9771161,-0.002552038,0.0082328515,-0.21255332,0.0,0.0,0.0,0.0,0
132224000,0,0.97711617,-0.002556412,0.008228033,-0.21255328,0.0,0.0,0.0,0.0,0
132232000,0,0.97711617,-0.0025599874,0.0082241325,-0.21255326,0.0,0.0,0.0,0.0,0
132244000,0,0.97711617,-0.002555936,0.008224605,-0.21255329,0.0,0.0,0.0,0.0,0
132252000,0,0.9771162,-0.002562154,0.008219265,-0.21255323,0.0,0.0,0.0,0.0,0
132264000,0,0.9771162,-0.002565091,0.0082143,-0.21255325,0.0,0.0,0.0,0.0,0
132272000,0,0.9771162,-0.0025611871,0.0082133,-0.21255335,0.0,0.0,0.0,0.0,0
132284000,0,0.9771162,-0.002547647,0.008219907,-0.21255347,0.0,0.0,0.0,0.0,0
132292000,0,0.97711617,-0.0025409346,0.008222848,-0.21255355,0.0,0.0,0.0,0.0,0
132304000,0,0.97711617,-0.0025358815,0.008224003,-0.21255359,0.0,0.0,0.0,0.0,0
132312000,0,0.97711617,-0.00253675,0.008222072,-0.21255358,0.0,0.0,0.0,0.0,0
132324000,0,0.9771162,-0.0025456853,0.008214305,-0.2125535,0.0,0.0,0.0,0.0,0
132332000,0,0.9771163,-0.0025573377,0.008205573,-0.21255338,0.0,0.0,0.0,0.0,0
132344000,0,0.9771164,-0.0025734464,0.008193478,-0.21255323,0.0,0.0,0.0,0.0,0
132352000,0,0.9771164,-0.0025674053,0.00819496,-0.21255332,0.0,0.0,0.0,0.0,0
132364000,0,0.9771164,-0.002562268,0.008196112,-0.21255337,0.0,0.0,0.0,0.0,0
132372000,0,0.9771164,-0.002564346,0.008193367,-0.21255335,0.0,0.0,0.0,0.0,0
132384000,0,0.97711647,-0.0025769977,0.0081831515,-0.21255325,0.0,0.0,0.0,0.0,0
132392000,0,0.97711647,-0.0025717386,0.008184706,-0.2125533,0.0,0.0,0.0,0.0,0
132404000,0,0.97711647,-0.00256985,0.00818374,-0.21255332,0.0,0.0,0.0,0.0,0
132412000,0,0.9771165,-0.0025753598,0.008178769,-0.21255328,0.0,0.0,0.0,0.0,0
132424000,0,0.9771165,-0.0025750587,0.008176382,-0.21255329,0.0,0.0,0.0,0.0,0
132432000,0,0.9771165,-0.002573014,0.008176217,-0.21255332,0.0,0.0,0.0,0.0,0
132444000,0,0.9771166,-0.0025808588,0.008168988,-0.21255325,0.0,0.0,0.0,0.0,0
132452000,0,0.97711664,-0.0025854586,0.008164298,-0.21255322,0.0,0.0,0.0,0.0,0
132464000,0,0.9771166,-0.0025761782,0.008165961,-0.21255338,0.0,0.0,0.0,0.0,0
132472000,0,0.9771166,-0.0025679518,0.008169762,-0.21255346,0.0,0.0,0.0,0.0,0
132484000,0,0.9771165,-0.002558994,0.008173268,-0.21255353,0.0,0.0,0.0,0.0,0
132492000,0,0.9771165,-0.0025559904,0.008173702,-0.21255356,0.0,0.0,0.0,0.0,0
132504000,0,0.9771166,-0.0025569473,0.008170852,-0.21255356,0.0,0.0,0.0,0.0,0
132512000,0,0.9771166,-0.0025617862,0.008166259,-0.21255352,0.0,0.0,0.0,0.0,0
132524000,0,0.9771167,-0.0025762548,0.008154744,-0.2125534,0.0,0.0,0.0,0.0,0
132532000,0,0.97711676,-0.002591209,0.008143658,-0.21255326,0.0,0.0,0.0,0.0,0
132544000,0,0.9771168,-0.0025976426,0.0081363255,-0.21255325,0.0,0.0,0.0,0.0,0
132552000,0,0.9771168,-0.0025924316,0.00813557,-0.21255337,0.0,0.0,0.0,0.0,0
132564000,0,0.9771167,-0.0025691895,0.008147059,-0.2125536,0.0,0.0,0.0,0.0,0
132572000,0,0.97711664,-0.0025454431,0.008160812,-0.21255381,0.0,0.0,0.0,0.0,0
132584000,0,0.9771164,-0.002501342,0.00818686,-0.21255422,0.0,0.0,0.0,0.0,0
132592000,0,0.9771163,-0.002467125,0.0082073,-0.21255453,0.0,0.0,0.0,0.0,0
132604000,0,0.97711605,-0.0024100167,0.008241652,-0.21255505,0.0,0.0,0.0,0.0,0
132612000,0,0.9771158,-0.0023688138,0.0082665505,-0.21255541,0.0,0.0,0.0,0.0,0
132624000,0,0.9771155,-0.002303252,0.008306296,-0.212556,0.0,0.0,0.0,0.0,0
132632000,0,0.97711533,-0.002257388,0.008334166,-0.21255642,0.0,0.0,0.0,0.0,0
132644000,0,0.977115,-0.0021856052,0.008377876,-0.21255706,0.0,0.0,0.0,0.0,0
132652000,0,0.97711474,-0.0021357017,0.008408322,-0.21255751,0.0,0.0,0.0,0.0,0
132664000,0,0.9771143,-0.002057335,0.008456225,-0.2125582,0.0,0.0,0.0,0.0,0
132672000,0,0.97711277,-0.0021645362,0.008608345,-0.21255808,0.0,0.0,0.0,0.0,0
132684000,0,0.97711414,-0.002407705,0.0084420685,-0.21255577,0.0,0.0,0.0,0.0,0
132692000,0,0.9771156,-0.0026720148,0.008261994,-0.21255328,0.0,0.0,0.0,0.0,0
132704000,0,0.9771156,-0.002671957,0.008260626,-0.21255328,0.0,0.0,0.0,0.0,0
132712000,0,0.9771156,-0.0026700455,0.008260041,-0.2125533,0.0,0.0,0.0,0.0,0
132724000,0,0.9771156,-0.0026672524,0.008259119,-0.21255335,0.0,0.0,0.0,0.0,0
132732000,0,0.9771156,-0.0026653677,0.008258499,-0.21255338,0.0,0.0,0.0,0.0,0
132744000,0,0.9771156,-0.0026625092,0.008257565,-0.21255343,0.0,0.0,0.0,0.0,0
132752000,0,0.9771156,-0.0026605816,0.008256937,-0.21255346,0.0,0.0,0.0,0.0,0
132764000,0,0.9771156,-0.0026576691,0.008255989,-0.21255352,0.0,0.0,0.0,0.0,0
132772000,0,0.9771156,-0.0026557222,0.008255352,-0.21255355,0.0,0.0,0.0,0.0,0
132784000,0,0.9771156,-0.0026525757,0.008254418,-0.2125536,0.0,0.0,0.0,0.0,0
132792000,0,0.97711563,-0.0026500314,0.008253845,-0.21255365,0.0,0.0,0.0,0.0,0
132804000,0,0.97711563,-0.002645658,0.00825309,-0.21255372,0.0,0.0,0.0,0.0,0
132812000,0,0.97711563,-0.0026424644,0.008252663,-0.21255378,0.0,0.0,0.0,0.0,0
132824000,0,0.97711563,-0.002637268,0.008252059,-0.21255387,0.0,0.0,0.0,0.0,0
132832000,0,0.97711563,-0.0026334592,0.00825109,-0.21255393,0.0,0.0,0.0,0.0,0
132844000,0,0.97711563,-0.0026297504,0.008248405,-0.21255404,0.0,0.0,0.0,0.0,0
132852000,0,0.97711563,-0.002628116,0.00824697,-0.21255413,0.0,0.0,0.0,0.0,0
132864000,0,0.97711563,-0.0026256214,0.008245,-0.21255426,0.0,0.0,0.0,0.0,0
132872000,0,0.97711563,-0.0026233976,0.008243893,-0.21255437,0.0,0.0,0.0,0.0,0
132884000,0,0.9771156,-0.0026197345,0.008242325,-0.21255453,0.0,0.0,0.0,0.0,0
132892000,0,0.9771156,-0.002617055,0.008241336,-0.21255465,0.0,0.0,0.0,0.0,0
132904000,0,0.9771156,-0.0026125652,0.008240013,-0.2125548,0.0,0.0,0.0,0.0,0
132912000,0,0.9771156,-0.0026092501,0.008239166,-0.21255489,0.0,0.0,0.0,0.0,0
132924000,0,0.9771156,-0.0026028156,0.008237864,-0.21255504,0.0,0.0,0.0,0.0,0
132932000,0,0.9771155,-0.0025925748,0.00824155,-0.21255517,0.0,0.0,0.0,0.0,0
132944000,0,0.9771154,-0.0025646735,0.008256279,-0.21255545,0.0,0.0,0.0,0.0,0
132952000,0,0.97711533,-0.0025396126,0.008270537,-0.2125557,0.0,0.0,0.0,0.0,0
132964000,0,0.9771151,-0.0024961561,0.008296597,-0.21255612,0.0,0.0,0.0,0.0,0
132972000,0,0.977115,-0.0024705483,0.008312199,-0.21255636,0.0,0.0,0.0,0.0,0
132984000,0,0.9771149,-0.002447378,0.00832535,-0.21255657,0.0,0.0,0.0,0.0,0
132992000,0,0.9771149,-0.0024449045,0.008325607,-0.2125566,0.0,0.0,0.0,0.0,0
133004000,0,0.977115,-0.002462501,0.008312835,-0.2125564,0.0,0.0,0.0,0.0,0
133012000,0,0.97711515,-0.002488925,0.0082952,-0.21255615,0.0,0.0,0.0,0.0,0
133024000,0,0.97711545,-0.0025513913,0.008254103,-0.21255554,0.0,0.0,0.0,0.0,0
133032000,0,0.9771156,-0.0025784604,0.00823594,-0.21255529,0.0,0.0,0.0,0.0,0
133044000,0,0.9771156,-0.002573775,0.008234617,-0.21255547,0.0,0.0,0.0,0.0,0
133052000,0,0.9771156,-0.0025702643,0.008233825,-0.21255556,0.0,0.0,0.0,0.0,0
133064000,0,0.9771156,-0.002564158,0.008232315,-0.2125557,0.0,0.0,0.0,0.0,0
133072000,0,0.9771156,-0.0025556309,0.008234381,-0.21255584,0.0,0.0,0.0,0.0,0
133084000,0,0.97711545,-0.0025272132,0.00825025,-0.21255611,0.0,0.0,0.0,0.0,0
133092000,0,0.97711533,-0.0025027546,0.008264982,-0.21255633,0.0,0.0,0.0,0.0,0
133104000,0,0.97711515,-0.0024669091,0.008286402,-0.21255666,0.0,0.0,0.0,0.0,0
133112000,0,0.9771151,-0.0024472761,0.008297792,-0.21255684,0.0,0.0,0.0,0.0,0
133124000,0,0.977115,-0.002428883,0.008307598,-0.212557,0.0,0.0,0.0,0.0,0
133132000,0,0.977115,-0.0024256317,0.00830829,-0.21255703,0.0,0.0,0.0,0.0,0
133144000,0,0.97711504,-0.002435616,0.008299915,-0.21255694,0.0,0.0,0.0,0.0,0
133152000,0,0.97711515,-0.0024526054,0.0082880985,-0.21255676,0.0,0.0,0.0,0.0,0
133164000,0,0.9771154,-0.0024944674,0.008260007,-0.21255635,0.0,0.0,0.0,0.0,0
133172000,0,0.9771156,-0.0025340014,0.008233844,-0.21255597,0.0,0.0,0.0,0.0,0
133184000,0,0.9771158,-0.002583343,0.0082008615,-0.2125555,0.0,0.0,0.0,0.0,0
133192000,0,0.9771158,-0.0025799694,0.008200016,-0.21255562,0.0,0.0,0.0,0.0,0
133204000,0,0.9771158,-0.0025741402,0.008198629,-0.21255578,0.0,0.0,0.0,0.0,0
133212000,0,0.9771158,-0.0025681376,0.008198511,-0.21255589,0.0,0.0,0.0,0.0,0
133224000,0,0.9771157,-0.0025437728,0.008211234,-0.21255614,0.0,0.0,0.0,0.0,0
133232000,0,0.97711563,-0.0025205705,0.008224895,-0.21255635,0.0,0.0,0.0,0.0,0
133244000,0,0.97711545,-0.0024819612,0.008247794,-0.21255669,0.0,0.0,0.0,0.0,0
133252000,0,0.97711533,-0.0024563065,0.0082629565,-0.21255693,0.0,0.0,0.0,0.0,0
133264000,0,0.97711515,-0.0024220138,0.008282921,-0.21255724,0.0,0.0,0.0,0.0,0
133272000,0,0.9771151,-0.002403857,0.008293164,-0.2125574,0.0,0.0,0.0,0.0,0
133284000,0,0.97711504,-0.0023860424,0.008302406,-0.21255757,0.0,0.0,0.0,0.0,0
133292000,0,0.97711504,-0.0023812894,0.008303969,-0.21255761,0.0,0.0,0.0,0.0,0
133304000,0,0.97711504,-0.0023856058,0.008299027,-0.21255758,0.0,0.0,0.0,0.0,0
133312000,0,0.9771151,-0.0023963207,0.008290723,-0.21255748,0.0,0.0,0.0,0.0,0
133324000,0,0.9771153,-0.0024243288,0.008270889,-0.21255723,0.0,0.0,0.0,0.0,0
133332000,0,0.9771154,-0.0024511975,0.008252625,-0.21255697,0.0,0.0,0.0,0.0,0
133344000,0,0.9771157,-0.0025046517,0.008216772,-0.21255647,0.0,0.0,0.0,0.0,0
133352000,0,0.9771159,-0.002549722,0.008186796,-0.21255603,0.0,0.0,0.0,0.0,0
133364000,0,0.97711617,-0.0026028568,0.008151086,-0.21255553,0.0,0.0,0.0,0.0,0
133372000,0,0.97711617,-0.0025992019,0.008150279,-0.21255566,0.0,0.0,0.0,0.0,0
133384000,0,0.97711617,-0.0025921299,0.008148992,-0.21255583,0.0,0.0,0.0,0.0,0
133392000,0,0.9771161,-0.002581615,0.008152261,-0.21255597,0.0,0.0,0.0,0.0,0
133400000,0,0.97711605,-0.002559638,0.008164898,-0.21255618,0.0,0.0,0.0,0.0,0
133412000,0,0.97711587,-0.0025160536,0.00819075,-0.21255657,0.0,0.0,0.0,0.0,0
133424000,0,0.97711563,-0.0024627023,0.008222837,-0.21255705,0.0,0.0,0.0,0.0,0
133432000,0,0.97711545,-0.0024234478,0.0082465755,-0.2125574,0.0,0.0,0.0,0.0,0
133444000,0,0.97711515,-0.0023615041,0.008284119,-0.21255797,0.0,0.0,0.0,0.0,0
133452000,0,0.977115,-0.002319385,0.008309657,-0.21255834,0.0,0.0,0.0,0.0,0
133464000,0,0.9771147,-0.0022566118,0.008347682,-0.21255891,0.0,0.0,0.0,0.0,0
133472000,0,0.97711444,-0.0022157296,0.008372398,-0.21255928,0.0,0.0,0.0,0.0,0
133484000,0,0.97711414,-0.002156633,0.008408024,-0.21255982,0.0,0.0,0.0,0.0,0
133492000,0,0.97711396,-0.002118948,0.008430662,-0.21256015,0.0,0.0,0.0,0.0,0
133504000,0,0.9771137,-0.0020650383,0.00846292,-0.21256064,0.0,0.0,0.0,0.0,0
133512000,0,0.97711354,-0.002030696,0.008483389,-0.21256094,0.0,0.0,0.0,0.0,0
133524000,0,0.9771133,-0.0019810603,0.0085128695,-0.21256138,0.0,0.0,0.0,0.0,0
133532000,0,0.9771131,-0.0019487814,0.008531994,-0.21256167,0.0,0.0,0.0,0.0,0
133544000,0,0.9771129,-0.0019006387,0.00856051,-0.2125621,0.0,0.0,0.0,0.0,0
133552000,0,0.9771127,-0.0018680925,0.008579816,-0.21256238,0.0,0.0,0.0,0.0,0
133564000,0,0.97711086,-0.0019189467,0.008766363,-0.21256283,0.0,0.0,0.0,0.0,0
133572000,0,0.9771116,-0.002036021,0.008686571,-0.21256171,0.0,0.0,0.0,0.0,0
133584000,0,0.9771136,-0.002387515,0.008447497,-0.21255842,0.0,0.0,0.0,0.0,0
133592000,0,0.97711533,-0.0027155103,0.00822454,-0.21255533,0.0,0.0,0.0,0.0,0
133604000,0,0.97711533,-0.002718484,0.008223007,-0.2125553,0.0,0.0,0.0,0.0,0
133612000,0,0.97711533,-0.0027171054,0.008222305,-0.21255533,0.0,0.0,0.0,0.0,0
133624000,0,0.97711533,-0.002715121,0.00822121,-0.21255538,0.0,0.0,0.0,0.0,0
133632000,0,0.97711533,-0.0027137725,0.008220481,-0.21255541,0.0,0.0,0.0,0.0,0
133644000,0,0.97711533,-0.0027117091,0.00821939,-0.21255545,0.0,0.0,0.0,0.0,0
133652000,0,0.97711533,-0.0027103038,0.008218666,-0.21255548,0.0,0.0,0.0,0.0,0
133664000,0,0.97711533,-0.002708152,0.00821758,-0.21255553,0.0,0.0,0.0,0.0,0
133672000,0,0.97711533,-0.0027066893,0.008216854,-0.21255556,0.0,0.0,0.0,0.0,0
133684000,0,0.97711533,-0.0027044541,0.008215765,-0.2125556,0.0,0.0,0.0,0.0,0
133692000,0,0.97711533,-0.0027029486,0.008215037,-0.21255563,0.0,0.0,0.0,0.0,0
133704000,0,0.97711533,-0.0027006657,0.008213944,-0.21255569,0.0,0.0,0.0,0.0,0
133712000,0,0.97711533,-0.0026991267,0.008213213,-0.21255572,0.0,0.0,0.0,0.0,0
133724000,0,0.9771154,-0.0026967921,0.008212115,-0.21255577,0.0,0.0,0.0,0.0,0
133732000,0,0.9771154,-0.0026952266,0.008211379,-0.21255581,0.0,0.0,0.0,0.0,0
133744000,0,0.9771154,-0.0026928713,0.008210268,-0.21255587,0.0,0.0,0.0,0.0,0
133752000,0,0.9771154,-0.0026911278,0.008209547,-0.21255592,0.0,0.0,0.0,0.0,0
133764000,0,0.9771154,-0.0026877646,0.008208573,-0.212556,0.0,0.0,0.0,0.0,0
133772000,0,0.9771154,-0.0026863872,0.008207258,-0.21255605,0.0,0.0,0.0,0.0,0
133784000,0,0.9771154,-0.0026846179,0.008205302,-0.21255615,0.0,0.0,0.0,0.0,0
133792000,0,0.9771154,-0.0026835485,0.008203963,-0.21255621,0.0,0.0,0.0,0.0,0
133804000,0,0.9771154,-0.0026816009,0.008202085,-0.21255635,0.0,0.0,0.0,0.0,0
133812000,0,0.97711533,-0.0026798395,0.008200999,-0.21255644,0.0,0.0,0.0,0.0,0
133824000,0,0.97711533,-0.0026767168,0.008199463,-0.21255659,0.0,0.0,0.0,0.0,0
133832000,0,0.97711533,-0.0026744304,0.008198455,-0.21255669,0.0,0.0,0.0,0.0,0
133844000,0,0.97711533,-0.0026706469,0.008197013,-0.21255687,0.0,0.0,0.0,0.0,0
133852000,0,0.97711533,-0.0026678306,0.008196123,-0.212557,0.0,0.0,0.0,0.0,0
133864000,0,0.97711533,-0.0026631462,0.008194875,-0.21255714,0.0,0.0,0.0,0.0,0
133872000,0,0.97711533,-0.0026597278,0.008193961,-0.21255723,0.0,0.0,0.0,0.0,0
133884000,0,0.97711533,-0.0026533764,0.0081922645,-0.21255736,0.0,0.0,0.0,0.0,0
133892000,0,0.9771153,-0.0026434488,0.008195509,-0.2125575,0.0,0.0,0.0,0.0,0
133904000,0,0.97711515,-0.00261464,0.008210683,-0.21255781,0.0,0.0,0.0,0.0,0
133912000,0,0.97711504,-0.0025876833,0.00822615,-0.21255808,0.0,0.0,0.0,0.0,0
133924000,0,0.97711486,-0.0025411716,0.008253101,-0.21255854,0.0,0.0,0.0,0.0,0
133932000,0,0.9771147,-0.0025078023,0.008273579,-0.21255884,0.0,0.0,0.0,0.0,0
133944000,0,0.9771145,-0.0024684616,0.00829734,-0.21255921,0.0,0.0,0.0,0.0,0
133952000,0,0.97711444,-0.002453607,0.008305584,-0.21255934,0.0,0.0,0.0,0.0,0
133964000,0,0.97711444,-0.0024520839,0.008304485,-0.21255936,0.0,0.0,0.0,0.0,0
133972000,0,0.97711456,-0.0024657026,0.008294744,-0.21255921,0.0,0.0,0.0,0.0,0
133984000,0,0.97711474,-0.0025088305,0.008265879,-0.21255879,0.0,0.0,0.0,0.0,0
133992000,0,0.977115,-0.0025532558,0.008236585,-0.21255836,0.0,0.0,0.0,0.0,0
134004000,0,0.9771151,-0.0025788045,0.008217898,-0.21255817,0.0,0.0,0.0,0.0,0
134012000,0,0.9771151,-0.0025755377,0.008217013,-0.21255828,0.0,0.0,0.0,0.0,0
134024000,0,0.9771151,-0.002570019,0.008215768,-0.21255843,0.0,0.0,0.0,0.0,0
134032000,0,0.9771151,-0.0025655248,0.008214784,-0.21255854,0.0,0.0,0.0,0.0,0
134044000,0,0.97711504,-0.002547023,0.0082226,-0.21255875,0.0,0.0,0.0,0.0,0
134052000,0,0.9771149,-0.0025259173,0.0082350345,-0.21255894,0.0,0.0,0.0,0.0,0
134064000,0,0.9771148,-0.002489848,0.008256467,-0.21255927,0.0,0.0,0.0,0.0,0
134072000,0,0.9771147,-0.0024661631,0.008270449,-0.21255949,0.0,0.0,0.0,0.0,0
134084000,0,0.97711456,-0.002436023,0.008287828,-0.21255976,0.0,0.0,0.0,0.0,0
134092000,0,0.9771145,-0.002421691,0.008295649,-0.2125599,0.0,0.0,0.0,0.0,0
134104000,0,0.97711444,-0.0024113427,0.008300138,-0.21255998,0.0,0.0,0.0,0.0,0
134112000,0,0.97711444,-0.0024126903,0.008297861,-0.21255998,0.0,0.0,0.0,0.0,0
134124000,0,0.97711456,-0.0024277424,0.008286197,-0.21255983,0.0,0.0,0.0,0.0,0
134132000,0,0.9771147,-0.0024467467,0.008272998,-0.21255966,0.0,0.0,0.0,0.0,0
134144000,0,0.9771149,-0.0024895067,0.008244163,-0.21255924,0.0,0.0,0.0,0.0,0
134152000,0,0.9771151,-0.0025282,0.008218409,-0.21255887,0.0,0.0,0.0,0.0,0
134164000,0,0.97711545,-0.0026027886,0.008169133,-0.21255815,0.0,0.0,0.0,0.0,0
134172000,0,0.97711545,-0.0026010359,0.008168235,-0.21255822,0.0,0.0,0.0,0.0,0
134184000,0,0.97711545,-0.0025951967,0.008166931,-0.21255839,0.0,0.0,0.0,0.0,0
134192000,0,0.97711545,-0.002589761,0.0081663225,-0.21255851,0.0,0.0,0.0,0.0,0
134204000,0,0.9771154,-0.0025688708,0.008175233,-0.21255876,0.0,0.0,0.0,0.0,0
134212000,0,0.9771153,-0.0025413465,0.008191551,-0.212559,0.0,0.0,0.0,0.0,0
134224000,0,0.97711504,-0.002489499,0.008222906,-0.21255948,0.0,0.0,0.0,0.0,0
134232000,0,0.97711486,-0.0024504722,0.008246659,-0.21255982,0.0,0.0,0.0,0.0,0
134244000,0,0.97711456,-0.002389639,0.008283711,-0.21256037,0.0,0.0,0.0,0.0,0
134252000,0,0.9771144,-0.002349879,0.008307854,-0.21256073,0.0,0.0,0.0,0.0,0
134264000,0,0.9771141,-0.0022946487,0.008341154,-0.21256123,0.0,0.0,0.0,0.0,0
134272000,0,0.97711396,-0.0022621728,0.008360529,-0.21256153,0.0,0.0,0.0,0.0,0
134284000,0,0.9771138,-0.0022216479,0.008384289,-0.21256189,0.0,0.0,0.0,0.0,0
134292000,0,0.97711366,-0.0022006915,0.008396211,-0.21256208,0.0,0.0,0.0,0.0,0
134304000,0,0.97711354,-0.0021788229,0.00840791,-0.2125623,0.0,0.0,0.0,0.0,0
134312000,0,0.97711354,-0.0021706342,0.008411605,-0.21256237,0.0,0.0,0.0,0.0,0
134324000,0,0.97711354,-0.0021676733,0.008411184,-0.2125624,0.0,0.0,0.0,0.0,0
134332000,0,0.9771136,-0.0021716736,0.008407081,-0.21256237,0.0,0.0,0.0,0.0,0
134344000,0,0.97711366,-0.0021861373,0.008395504,-0.21256223,0.0,0.0,0.0,0.0,0
134352000,0,0.9771138,-0.0022011045,0.008384372,-0.2125621,0.0,0.0,0.0,0.0,0
134364000,0,0.97711396,-0.0022309925,0.008362902,-0.21256185,0.0,0.0,0.0,0.0,0
134372000,0,0.9771141,-0.0022555692,0.0083456,-0.21256162,0.0,0.0,0.0,0.0,0
