timestamp,timestamp_sample,ref_timestamp,ref_lat,ref_lon,x,y,z,delta_xy[0],delta_xy[1],delta_z,vx,vy,vz,z_deriv,delta_vxy[0],delta_vxy[1],delta_vz,ax,ay,az,heading,heading_var,unaided_heading,delta_heading,tilt_var,ref_alt,dist_bottom,eph,epv,evh,evv,vxy_max,vz_max,hagl_min,hagl_max,xy_valid,z_valid,v_xy_valid,v_z_valid,xy_reset_counter,z_reset_counter,vxy_reset_counter,vz_reset_counter,heading_reset_counter,heading_good_for_control,xy_global,z_global,dist_bottom_valid,dist_bottom_sensor_bitfield,dead_reckoning
126712000,0,0,37.413534,-121.99656100000001,-0.011119493,0.0,-0.014999986,0.0,0.0,0.0,0.0,0.0,0.0,0.0,0.0,0.0,0.0,-0.097,0.298,0.059000004,-0.42846859,0.0,0.0,0.0,0.0,1.3000001,0.0,0.0,0.0,0.0,0.0,inf,inf,inf,inf,1,1,1,1,0,0,0,0,0,0,1,1,0,0,0
126716000,0,0,37.413534,-121.99656100000001,-0.011119493,0.0,-0.014999986,0.0,0.0,0.0,0.0,0.0,0.0,0.0,0.0,0.0,0.0,0.081,-0.215,0.008,-0.4284685,0.0,0.0,0.0,0.0,1.3000001,0.0,0.0,0.0,0.0,0.0,inf,inf,inf,inf,1,1,1,1,0,0,0,0,0,0,1,1,0,0,0
126732000,0,0,37.413534,-121.99656100000001,-0.011119493,0.0,-0.014999986,0.0,0.0,0.0,0.0,0.0,0.0,0.0,0.0,0.0,0.0,0.001,0.008,0.016,-0.42846894,0.0,0.0,0.0,0.0,1.3000001,0.0,0.0,0.0,0.0,0.0,inf,inf,inf,inf,1,1,1,1,0,0,0,0,0,0,1,1,0,0,0
126752000,0,0,37.413534,-121.99656100000001,-0.011119493,0.0,-0.014999986,0.0,0.0,0.0,0.0,0.0,0.0,0.0,0.0,0.0,0.0,0.0,0.0,0.0,-0.4284689,0.0,0.0,0.0,0.0,1.3000001,0.0,0.0,0.0,0.0,0.0,inf,inf,inf,inf,1,1,1,1,0,0,0,0,0,0,1,1,0,0,0
126772000,0,0,37.413534,-121.99656100000001,-0.011119493,0.0,-0.014999986,0.0,0.0,0.0,0.0,0.0,0.0,0.0,0.0,0.0,0.0,0.0,0.0,0.0,-0.4284689,0.0,0.0,0.0,0.0,1.3000001,0.0,0.0,0.0,0.0,0.0,inf,inf,inf,inf,1,1,1,1,0,0,0,0,0,0,1,1,0,0,0
126792000,0,0,37.413534,-121.99656100000001,-0.011119493,0.0,-0.014999986,0.0,0.0,0.0,0.0,0.0,0.0,0.0,0.0,0.0,0.0,0.0,0.0,0.0,-0.4284689,0.0,0.0,0.0,0.0,1.3000001,0.0,0.0,0.0,0.0,0.0,inf,inf,inf,inf,1,1,1,1,0,0,0,0,0,0,1,1,0,0,0
126812000,0,0,37.413534,-121.99656100000001,-0.011119493,0.0,-0.014999986,0.0,0.0,0.0,0.0,0.0,0.0,0.0,0.0,0.0,0.0,0.0,-0.003,-0.007,-0.42846894,0.0,0.0,0.0,0.0,1.3000001,0.0,0.0,0.0,0.0,0.0,inf,inf,inf,inf,1,1,1,1,0,0,0,0,0,0,1,1,0,0,0
126832000,0,0,37.413534,-121.99656100000001,-0.011119493,0.0,-0.014999986,0.0,0.0,0.0,0.0,0.0,0.0,0.0,0.0,0.0,0.0,0.0,0.0,0.0,-0.4284696,0.0,0.0,0.0,0.0,1.3000001,0.0,0.0,0.0,0.0,0.0,inf,inf,inf,inf,1,1,1,1,0,0,0,0,0,0,1,1,0,0,0
126852000,0,0,37.413534,-121.99656100000001,-0.011119493,0.0,-0.014999986,0.0,0.0,0.0,0.0,0.0,0.0,0.0,0.0,0.0,0.0,0.0,0.0,0.0,-0.4284696,0.0,0.0,0.0,0.0,1.3000001,0.0,0.0,0.0,0.0,0.0,inf,inf,inf,inf,1,1,1,1,0,0,0,0,0,0,1,1,0,0,0
126872000,0,0,37.413534,-121.99656100000001,-0.011119493,0.0,-0.014999986,0.0,0.0,0.0,0.0,0.0,0.0,0.0,0.0,0.0,0.0,0.0,0.0,0.0,-0.4284696,0.0,0.0,0.0,0.0,1.3000001,0.0,0.0,0.0,0.0,0.0,inf,inf,inf,inf,1,1,1,1,0,0,0,0,0,0,1,1,0,0,0
126892000,0,0,37.413534,-121.99656100000001,-0.011119493,0.0,-0.014999986,0.0,0.0,0.0,0.0,0.0,0.0,0.0,0.0,0.0,0.0,0.0,0.0,0.0,-0.42846966,0.0,0.0,0.0,0.0,1.3000001,0.0,0.0,0.0,0.0,0.0,inf,inf,inf,inf,1,1,1,1,0,0,0,0,0,0,1,1,0,0,0
126912000,0,0,37.413534,-121.99656100000001,-0.011119493,0.0,-0.014999986,0.0,0.0,0.0,0.0,0.0,0.0,0.0,0.0,0.0,0.0,0.0,0.001,-0.001,-0.42846966,0.0,0.0,0.0,0.0,1.3000001,0.0,0.0,0.0,0.0,0.0,inf,inf,inf,inf,1,1,1,1,0,0,0,0,0,0,1,1,0,0,0
126932000,0,0,37.413534,-121.99656100000001,-0.011119493,0.0,-0.014999986,0.0,0.0,0.0,0.0,0.0,0.0,0.0,0.0,0.0,0.0,0.0,0.0,0.0,-0.4284697,0.0,0.0,0.0,0.0,1.3000001,0.0,0.0,0.0,0.0,0.0,inf,inf,inf,inf,1,1,1,1,0,0,0,0,0,0,1,1,0,0,0
126952000,0,0,37.413534,-121.99656100000001,-0.011119493,0.0,-0.014999986,0.0,0.0,0.0,0.0,0.0,0.0,0.0,0.0,0.0,0.0,0.0,0.0,0.0,-0.4284697,0.0,0.0,0.0,0.0,1.3000001,0.0,0.0,0.0,0.0,0.0,inf,inf,inf,inf,1,1,1,1,0,0,0,0,0,0,1,1,0,0,0
126972000,0,0,37.413534,-121.99656100000001,-0.011119493,0.0,-0.014999986,0.0,0.0,0.0,0.0,0.0,0.0,0.0,0.0,0.0,0.0,0.0,0.001,-0.001,-0.42846972,0.0,0.0,0.0,0.0,1.3000001,0.0,0.0,0.0,0.0,0.0,inf,inf,inf,inf,1,1,1,1,0,0,0,0,0,0,1,1,0,0,0
126992000,0,0,37.413534,-121.99656100000001,-0.011119493,0.0,-0.014999986,0.0,0.0,0.0,0.0,0.0,0.0,0.0,0.0,0.0,0.0,0.0,0.0,0.0,-0.42846972,0.0,0.0,0.0,0.0,1.3000001,0.0,0.0,0.0,0.0,0.0,inf,inf,inf,inf,1,1,1,1,0,0,0,0,0,0,1,1,0,0,0
127012000,0,0,37.413534,-121.99656100000001,-0.011119493,0.0,-0.014999986,0.0,0.0,0.0,0.0,0.0,0.0,0.0,0.0,0.0,0.0,0.0,0.0,0.0,-0.42846972,0.0,0.0,0.0,0.0,1.3000001,0.0,0.0,0.0,0.0,0.0,inf,inf,inf,inf,1,1,1,1,0,0,0,0,0,0,1,1,0,0,0
127032000,0,0,37.413534,-121.99656100000001,-0.011119493,0.0,-0.014999986,0.0,0.0,0.0,0.0,0.0,0.0,0.0,0.0,0.0,0.0,0.0,0.001,-0.001,-0.42846975,0.0,0.0,0.0,0.0,1.3000001,0.0,0.0,0.0,0.0,0.0,inf,inf,inf,inf,1,1,1,1,0,0,0,0,0,0,1,1,0,0,0
127052000,0,0,37.413534,-121.99656100000001,-0.011119493,0.0,-0.014999986,0.0,0.0,0.0,0.0,0.0,0.0,0.0,0.0,0.0,0.0,0.0,0.0,0.0,-0.42846978,0.0,0.0,0.0,0.0,1.3000001,0.0,0.0,0.0,0.0,0.0,inf,inf,inf,inf,1,1,1,1,0,0,0,0,0,0,1,1,0,0,0
127072000,0,0,37.413534,-121.99656100000001,-0.011119493,0.0,-0.014999986,0.0,0.0,0.0,0.0,0.0,0.0,0.0,0.0,0.0,0.0,0.0,0.0,0.0,-0.42846978,0.0,0.0,0.0,0.0,1.3000001,0.0,0.0,0.0,0.0,0.0,inf,inf,inf,inf,1,1,1,1,0,0,0,0,0,0,1,1,0,0,0
127092000,0,0,37.413534,-121.99656100000001,-0.011119493,0.0,-0.014999986,0.0,0.0,0.0,0.0,0.0,0.0,0.0,0.0,0.0,0.0,0.0,-0.001,0.001,-0.42846984,0.0,0.0,0.0,0.0,1.3000001,0.0,0.0,0.0,0.0,0.0,inf,inf,inf,inf,1,1,1,1,0,0,0,0,0,0,1,1,0,0,0
127112000,0,0,37.413534,-121.99656100000001,-0.011119493,0.0,-0.014999986,0.0,0.0,0.0,0.0,0.0,0.0,0.0,0.0,0.0,0.0,0.148,-0.372,0.046000004,-0.42847055,0.0,0.0,0.0,0.0,1.3000001,0.0,0.0,0.0,0.0,0.0,inf,inf,inf,inf,1,1,1,1,0,0,0,0,0,0,1,1,0,0,0
127132000,0,0,37.413534,-121.99656100000001,-0.011119493,0.0,-0.014999986,0.0,0.0,0.0,0.0,0.0,0.0,0.0,0.0,0.0,0.0,0.0,0.0,0.0,-0.42847058,0.0,0.0,0.0,0.0,1.3000001,0.0,0.0,0.0,0.0,0.0,inf,inf,inf,inf,1,1,1,1,0,0,0,0,0,0,1,1,0,0,0
127152000,0,0,37.413534,-121.99656100000001,-0.011119493,0.0,-0.014999986,0.0,0.0,0.0,0.0,0.0,0.0,0.0,0.0,0.0,0.0,0.0,0.0,0.0,-0.42847058,0.0,0.0,0.0,0.0,1.3000001,0.0,0.0,0.0,0.0,0.0,inf,inf,inf,inf,1,1,1,1,0,0,0,0,0,0,1,1,0,0,0
127172000,0,0,37.413534,-121.99656100000001,-0.011119493,0.0,-0.014999986,0.0,0.0,0.0,0.0,0.0,0.0,0.0,0.0,0.0,0.0,0.0,0.0,0.0,-0.42847055,0.0,0.0,0.0,0.0,1.3000001,0.0,0.0,0.0,0.0,0.0,inf,inf,inf,inf,1,1,1,1,0,0,0,0,0,0,1,1,0,0,0
127192000,0,0,37.413534,-121.99656100000001,-0.011119493,0.0,-0.014999986,0.0,0.0,0.0,0.0,0.0,0.0,0.0,0.0,0.0,0.0,0.0,0.0,0.0,-0.4284706,0.0,0.0,0.0,0.0,1.3000001,0.0,0.0,0.0,0.0,0.0,inf,inf,inf,inf,1,1,1,1,0,0,0,0,0,0,1,1,0,0,0
127212000,0,0,37.413534,-121.99656100000001,-0.011119493,0.0,-0.014999986,0.0,0.0,0.0,0.0,0.0,0.0,0.0,0.0,0.0,0.0,0.0,0.0,0.0,-0.42847064,0.0,0.0,0.0,0.0,1.3000001,0.0,0.0,0.0,0.0,0.0,inf,inf,inf,inf,1,1,1,1,0,0,0,0,0,0,1,1,0,0,0
127232000,0,0,37.413534,-121.99656100000001,-0.011119493,0.0,-0.014999986,0.0,0.0,0.0,0.0,0.0,0.0,0.0,0.0,0.0,0.0,0.0,0.0,0.0,-0.42847064,0.0,0.0,0.0,0.0,1.3000001,0.0,0.0,0.0,0.0,0.0,inf,inf,inf,inf,1,1,1,1,0,0,0,0,0,0,1,1,0,0,0
127252000,0,0,37.413534,-121.99656100000001,-0.011119493,0.0,-0.014999986,0.0,0.0,0.0,0.0,0.0,0.0,0.0,0.0,0.0,0.0,0.0,0.001,-0.001,-0.42847067,0.0,0.0,0.0,0.0,1.3000001,0.0,0.0,0.0,0.0,0.0,inf,inf,inf,inf,1,1,1,1,0,0,0,0,0,0,1,1,0,0,0
127272000,0,0,37.413534,-121.99656100000001,-0.011119493,0.0,-0.014999986,0.0,0.0,0.0,0.0,0.0,0.0,0.0,0.0,0.0,0.0,0.0,0.0,0.0,-0.4284707,0.0,0.0,0.0,0.0,1.3000001,0.0,0.0,0.0,0.0,0.0,inf,inf,inf,inf,1,1,1,1,0,0,0,0,0,0,1,1,0,0,0
127292000,0,0,37.413534,-121.99656100000001,-0.011119493,0.0,-0.014999986,0.0,0.0,0.0,0.0,0.0,0.0,0.0,0.0,0.0,0.0,0.0,0.0,0.0,-0.4284707,0.0,0.0,0.0,0.0,1.3000001,0.0,0.0,0.0,0.0,0.0,inf,inf,inf,inf,1,1,1,1,0,0,0,0,0,0,1,1,0,0,0
127312000,0,0,37.413534,-121.99656100000001,-0.011119493,0.0,-0.014999986,0.0,0.0,0.0,0.0,0.0,0.0,0.0,0.0,0.0,0.0,0.0,0.0,0.0,-0.42847073,0.0,0.0,0.0,0.0,1.3000001,0.0,0.0,0.0,0.0,0.0,inf,inf,inf,inf,1,1,1,1,0,0,0,0,0,0,1,1,0,0,0
127332000,0,0,37.413534,-121.99656100000001,-0.011119493,0.0,-0.014999986,0.0,0.0,0.0,0.0,0.0,0.0,0.0,0.0,0.0,0.0,0.0,0.0,0.0,-0.4284707,0.0,0.0,0.0,0.0,1.3000001,0.0,0.0,0.0,0.0,0.0,inf,inf,inf,inf,1,1,1,1,0,0,0,0,0,0,1,1,0,0,0
127352000,0,0,37.413534,-121.99656100000001,-0.011119493,0.0,-0.014999986,0.0,0.0,0.0,0.0,0.0,0.0,0.0,0.0,0.0,0.0,0.0,-0.001,0.0,-0.42847073,0.0,0.0,0.0,0.0,1.3000001,0.0,0.0,0.0,0.0,0.0,inf,inf,inf,inf,1,1,1,1,0,0,0,0,0,0,1,1,0,0,0
127372000,0,0,37.413534,-121.99656100000001,-0.011119493,0.0,-0.014999986,0.0,0.0,0.0,0.0,0.0,0.0,0.0,0.0,0.0,0.0,0.0,0.0,0.0,-0.4284708,0.0,0.0,0.0,0.0,1.3000001,0.0,0.0,0.0,0.0,0.0,inf,inf,inf,inf,1,1,1,1,0,0,0,0,0,0,1,1,0,0,0
127392000,0,0,37.413534,-121.99656100000001,-0.011119493,0.0,-0.014999986,0.0,0.0,0.0,0.0,0.0,0.0,0.0,0.0,0.0,0.0,0.0,0.0,0.0,-0.42847082,0.0,0.0,0.0,0.0,1.3000001,0.0,0.0,0.0,0.0,0.0,inf,inf,inf,inf,1,1,1,1,0,0,0,0,0,0,1,1,0,0,0
127412000,0,0,37.413534,-121.99656100000001,-0.011119493,0.0,-0.014999986,0.0,0.0,0.0,0.0,0.0,0.0,0.0,0.0,0.0,0.0,0.0,0.0,0.0,-0.42847085,0.0,0.0,0.0,0.0,1.3000001,0.0,0.0,0.0,0.0,0.0,inf,inf,inf,inf,1,1,1,1,0,0,0,0,0,0,1,1,0,0,0
127432000,0,0,37.413534,-121.99656100000001,-0.011119493,0.0,-0.014999986,0.0,0.0,0.0,0.0,0.0,0.0,0.0,0.0,0.0,0.0,0.0,-0.001,0.0,-0.42847085,0.0,0.0,0.0,0.0,1.3000001,0.0,0.0,0.0,0.0,0.0,inf,inf,inf,inf,1,1,1,1,0,0,0,0,0,0,1,1,0,0,0
127452000,0,0,37.413534,-121.99656100000001,-0.011119493,0.0,-0.014999986,0.0,0.0,0.0,0.0,0.0,0.0,0.0,0.0,0.0,0.0,0.14500001,-0.37600002,0.022000002,-0.42847157,0.0,0.0,0.0,0.0,1.3000001,0.0,0.0,0.0,0.0,0.0,inf,inf,inf,inf,1,1,1,1,0,0,0,0,0,0,1,1,0,0,0
127472000,0,0,37.413534,-121.99656100000001,-0.011119493,0.0,-0.014999986,0.0,0.0,0.0,0.0,0.0,0.0,0.0,0.0,0.0,0.0,-0.001,0.001,0.0,-0.42847157,0.0,0.0,0.0,0.0,1.3000001,0.0,0.0,0.0,0.0,0.0,inf,inf,inf,inf,1,1,1,1,0,0,0,0,0,0,1,1,0,0,0
127492000,0,0,37.413534,-121.99656100000001,-0.011119493,0.0,-0.014999986,0.0,0.0,0.0,0.0,0.0,0.0,0.0,0.0,0.0,0.0,0.0,0.0,0.0,-0.42847162,0.0,0.0,0.0,0.0,1.3000001,0.0,0.0,0.0,0.0,0.0,inf,inf,inf,inf,1,1,1,1,0,0,0,0,0,0,1,1,0,0,0
127512000,0,0,37.413534,-121.99656100000001,-0.011119493,0.0,-0.014999986,0.0,0.0,0.0,0.0,0.0,0.0,0.0,0.0,0.0,0.0,-0.001,0.001,0.0,-0.42847168,0.0,0.0,0.0,0.0,1.3000001,0.0,0.0,0.0,0.0,0.0,inf,inf,inf,inf,1,1,1,1,0,0,0,0,0,0,1,1,0,0,0
127532000,0,0,37.413534,-121.99656100000001,-0.011119493,0.0,-0.014999986,0.0,0.0,0.0,0.0,0.0,0.0,0.0,0.0,0.0,0.0,0.0,0.0,0.0,-0.42847168,0.0,0.0,0.0,0.0,1.3000001,0.0,0.0,0.0,0.0,0.0,inf,inf,inf,inf,1,1,1,1,0,0,0,0,0,0,1,1,0,0,0
127552000,0,0,37.413534,-121.99656100000001,-0.011119493,0.0,-0.014999986,0.0,0.0,0.0,0.0,0.0,0.0,0.0,0.0,0.0,0.0,0.0,0.0,0.0,-0.42847168,0.0,0.0,0.0,0.0,1.3000001,0.0,0.0,0.0,0.0,0.0,inf,inf,inf,inf,1,1,1,1,0,0,0,0,0,0,1,1,0,0,0
127572000,0,0,37.413534,-121.99656100000001,-0.011119493,0.0,-0.014999986,0.0,0.0,0.0,0.0,0.0,0.0,0.0,0.0,0.0,0.0,0.0,0.0,0.0,-0.42847174,0.0,0.0,0.0,0.0,1.3000001,0.0,0.0,0.0,0.0,0.0,inf,inf,inf,inf,1,1,1,1,0,0,0,0,0,0,1,1,0,0,0
127592000,0,0,37.413534,-121.99656100000001,-0.011119493,0.0,-0.014999986,0.0,0.0,0.0,0.0,0.0,0.0,0.0,0.0,0.0,0.0,0.0,0.0,0.003,-0.42847174,0.0,0.0,0.0,0.0,1.3000001,0.0,0.0,0.0,0.0,0.0,inf,inf,inf,inf,1,1,1,1,0,0,0,0,0,0,1,1,0,0,0
127612000,0,0,37.413534,-121.99656100000001,-0.011119493,0.0,-0.014999986,0.0,0.0,0.0,0.0,0.0,0.0,0.0,0.0,0.0,0.0,0.0,0.0,0.0,-0.4284718,0.0,0.0,0.0,0.0,1.3000001,0.0,0.0,0.0,0.0,0.0,inf,inf,inf,inf,1,1,1,1,0,0,0,0,0,0,1,1,0,0,0
127632000,0,0,37.413534,-121.99656100000001,-0.011119493,0.0,-0.014999986,0.0,0.0,0.0,0.0,0.0,0.0,0.0,0.0,0.0,0.0,0.0,0.0,-0.003,-0.4284718,0.0,0.0,0.0,0.0,1.3000001,0.0,0.0,0.0,0.0,0.0,inf,inf,inf,inf,1,1,1,1,0,0,0,0,0,0,1,1,0,0,0
127652000,0,0,37.413534,-121.99656100000001,-0.011119493,0.0,-0.014999986,0.0,0.0,0.0,0.0,0.0,0.0,0.0,0.0,0.0,0.0,0.0,0.0,0.0,-0.4284718,0.0,0.0,0.0,0.0,1.3000001,0.0,0.0,0.0,0.0,0.0,inf,inf,inf,inf,1,1,1,1,0,0,0,0,0,0,1,1,0,0,0
127672000,0,0,37.413534,-121.99656100000001,-0.011119493,0.0,-0.014999986,0.0,0.0,0.0,0.0,0.0,0.0,0.0,0.0,0.0,0.0,0.0,0.0,0.0,-0.42847183,0.0,0.0,0.0,0.0,1.3000001,0.0,0.0,0.0,0.0,0.0,inf,inf,inf,inf,1,1,1,1,0,0,0,0,0,0,1,1,0,0,0
127692000,0,0,37.413534,-121.99656100000001,-0.011119493,0.0,-0.014999986,0.0,0.0,0.0,0.0,0.0,0.0,0.0,0.0,0.0,0.0,0.0,0.0,0.0,-0.42847183,0.0,0.0,0.0,0.0,1.3000001,0.0,0.0,0.0,0.0,0.0,inf,inf,inf,inf,1,1,1,1,0,0,0,0,0,0,1,1,0,0,0
127712000,0,0,37.413534,-121.99656100000001,-0.011119493,0.0,-0.014999986,0.0,0.0,0.0,0.0,0.0,0.0,0.0,0.0,0.0,0.0,0.113000005,-0.418,0.314,-0.42847255,0.0,0.0,0.0,0.0,1.3000001,0.0,0.0,0.0,0.0,0.0,inf,inf,inf,inf,1,1,1,1,0,0,0,0,0,0,1,1,0,0,0
127732000,0,0,37.413534,-121.99656100000001,-0.011119493,0.0,-0.014999986,0.0,0.0,0.0,0.0,0.0,0.0,0.0,0.0,0.0,0.0,0.0,0.0,-0.003,-0.42847258,0.0,0.0,0.0,0.0,1.3000001,0.0,0.0,0.0,0.0,0.0,inf,inf,inf,inf,1,1,1,1,0,0,0,0,0,0,1,1,0,0,0
127752000,0,0,37.413534,-121.99656100000001,-0.011119493,0.0,-0.014999986,0.0,0.0,0.0,0.0,0.0,0.0,0.0,0.0,0.0,0.0,0.0,0.0,0.0,-0.42847255,0.0,0.0,0.0,0.0,1.3000001,0.0,0.0,0.0,0.0,0.0,inf,inf,inf,inf,1,1,1,1,0,0,0,0,0,0,1,1,0,0,0
127772000,0,0,37.413534,-121.99656100000001,-0.011119493,0.0,-0.014999986,0.0,0.0,0.0,0.0,0.0,0.0,0.0,0.0,0.0,0.0,0.0,0.0,0.0,-0.42847258,0.0,0.0,0.0,0.0,1.3000001,0.0,0.0,0.0,0.0,0.0,inf,inf,inf,inf,1,1,1,1,0,0,0,0,0,0,1,1,0,0,0
127792000,0,0,37.413534,-121.99656100000001,-0.011119493,0.0,-0.014999986,0.0,0.0,0.0,0.0,0.0,0.0,0.0,0.0,0.0,0.0,0.0,0.0,0.0,-0.42847258,0.0,0.0,0.0,0.0,1.3000001,0.0,0.0,0.0,0.0,0.0,inf,inf,inf,inf,1,1,1,1,0,0,0,0,0,0,1,1,0,0,0
127812000,0,0,37.413534,-121.99656100000001,-0.011119493,0.0,-0.014999986,0.0,0.0,0.0,0.0,0.0,0.0,0.0,0.0,0.0,0.0,0.0,0.0,0.0,-0.42847258,0.0,0.0,0.0,0.0,1.3000001,0.0,0.0,0.0,0.0,0.0,inf,inf,inf,inf,1,1,1,1,0,0,0,0,0,0,1,1,0,0,0
127832000,0,0,37.413534,-121.99656100000001,-0.011119493,0.0,-0.014999986,0.0,0.0,0.0,0.0,0.0,0.0,0.0,0.0,0.0,0.0,0.0,0.0,0.0,-0.4284726,0.0,0.0,0.0,0.0,1.3000001,0.0,0.0,0.0,0.0,0.0,inf,inf,inf,inf,1,1,1,1,0,0,0,0,0,0,1,1,0,0,0
127852000,0,0,37.413534,-121.99656100000001,-0.011119493,0.0,-0.014999986,0.0,0.0,0.0,0.0,0.0,0.0,0.0,0.0,0.0,0.0,0.0,0.0,0.0,-0.42847267,0.0,0.0,0.0,0.0,1.3000001,0.0,0.0,0.0,0.0,0.0,inf,inf,inf,inf,1,1,1,1,0,0,0,0,0,0,1,1,0,0,0
127872000,0,0,37.413534,-121.99656100000001,-0.011119493,0.0,-0.014999986,0.0,0.0,0.0,0.0,0.0,0.0,0.0,0.0,0.0,0.0,0.0,0.0,0.0,-0.42847267,0.0,0.0,0.0,0.0,1.3000001,0.0,0.0,0.0,0.0,0.0,inf,inf,inf,inf,1,1,1,1,0,0,0,0,0,0,1,1,0,0,0
127892000,0,0,37.413534,-121.99656100000001,-0.011119493,0.0,-0.014999986,0.0,0.0,0.0,0.0,0.0,0.0,0.0,0.0,0.0,0.0,0.006,-0.054,-0.074,-0.4284726,0.0,0.0,0.0,0.0,1.3000001,0.0,0.0,0.0,0.0,0.0,inf,inf,inf,inf,1,1,1,1,0,0,0,0,0,0,1,1,0,0,0
127912000,0,0,37.413534,-121.99656100000001,-0.011119493,0.0,-0.014999986,0.0,0.0,0.0,0.0,0.0,0.0,0.0,0.0,0.0,0.0,0.049000002,-0.19700001,0.11000001,-0.42847294,0.0,0.0,0.0,0.0,1.3000001,0.0,0.0,0.0,0.0,0.0,inf,inf,inf,inf,1,1,1,1,0,0,0,0,0,0,1,1,0,0,0
127932000,0,0,37.413534,-121.99656100000001,-0.011119493,0.0,-0.014999986,0.0,0.0,0.0,0.0,0.0,0.0,0.0,0.0,0.0,0.0,-0.043,0.164,-0.072000004,-0.42847338,0.0,0.0,0.0,0.0,1.3000001,0.0,0.0,0.0,0.0,0.0,inf,inf,inf,inf,1,1,1,1,0,0,0,0,0,0,1,1,0,0,0
127952000,0,0,37.413534,-121.99656100000001,-0.011119493,0.0,-0.014999986,0.0,0.0,0.0,0.0,0.0,0.0,0.0,0.0,0.0,0.0,-0.041,0.15300001,-0.045,-0.42847368,0.0,0.0,0.0,0.0,1.3000001,0.0,0.0,0.0,0.0,0.0,inf,inf,inf,inf,1,1,1,1,0,0,0,0,0,0,1,1,0,0,0
127972000,0,0,37.413534,-121.99656100000001,-0.011119493,0.0,-0.014999986,0.0,0.0,0.0,0.0,0.0,0.0,0.0,0.0,0.0,0.0,-0.053000003,0.17600001,0.053000003,-0.42847335,0.0,0.0,0.0,0.0,1.3000001,0.0,0.0,0.0,0.0,0.0,inf,inf,inf,inf,1,1,1,1,0,0,0,0,0,0,1,1,0,0,0
127992000,0,0,37.413534,-121.99656100000001,-0.011119493,0.0,-0.014999986,0.0,0.0,0.0,0.0,0.0,0.0,0.0,0.0,0.0,0.0,-0.060000002,0.22600001,-0.17600001,-0.42847374,0.0,0.0,0.0,0.0,1.3000001,0.0,0.0,0.0,0.0,0.0,inf,inf,inf,inf,1,1,1,1,0,0,0,0,0,0,1,1,0,0,0
128012000,0,0,37.413534,-121.99656100000001,-0.011119493,0.0,-0.014999986,0.0,0.0,0.0,0.0,0.0,0.0,0.0,0.0,0.0,0.0,-1.478,0.432,-5.971,-0.42846808,0.0,0.0,0.0,0.0,1.3000001,0.0,0.0,0.0,0.0,0.0,inf,inf,inf,inf,1,1,1,1,0,0,0,0,0,0,1,1,0,0,0
128032000,0,0,37.413534,-121.99656100000001,-0.011119493,0.0,-0.014999986,0.0,0.0,0.0,0.0,0.0,0.0,0.0,0.0,0.0,0.0,0.0,0.0,-0.001,-0.4284681,0.0,0.0,0.0,0.0,1.3000001,0.0,0.0,0.0,0.0,0.0,inf,inf,inf,inf,1,1,1,1,0,0,0,0,0,0,1,1,0,0,0
128052000,0,0,37.413534,-121.99656100000001,-0.011119493,0.0,-0.014999986,0.0,0.0,0.0,0.0,0.0,0.0,0.0,0.0,0.0,0.0,-0.016,0.095000006,0.089,-0.42846796,0.0,0.0,0.0,0.0,1.3000001,0.0,0.0,0.0,0.0,0.0,inf,inf,inf,inf,1,1,1,1,0,0,0,0,0,0,1,1,0,0,0
128072000,0,0,37.413534,-121.99656100000001,-0.011119493,0.0,-0.014999986,0.0,0.0,0.0,0.0,0.0,0.0,0.0,0.0,0.0,0.0,0.0,-0.002,-0.003,-0.42846802,0.0,0.0,0.0,0.0,1.3000001,0.0,0.0,0.0,0.0,0.0,inf,inf,inf,inf,1,1,1,1,0,0,0,0,0,0,1,1,0,0,0
128092000,0,0,37.413534,-121.99656100000001,-0.011119493,0.0,-0.014999986,0.0,0.0,0.0,0.0,0.0,0.0,0.0,0.0,0.0,0.0,0.0,0.0,0.0,-0.42846805,0.0,0.0,0.0,0.0,1.3000001,0.0,0.0,0.0,0.0,0.0,inf,inf,inf,inf,1,1,1,1,0,0,0,0,0,0,1,1,0,0,0
128112000,0,0,37.413534,-121.99656100000001,-0.011119493,0.0,-0.014999986,0.0,0.0,0.0,0.0,0.0,0.0,0.0,0.0,0.0,0.0,0.0,0.0,0.0,-0.4284681,0.0,0.0,0.0,0.0,1.3000001,0.0,0.0,0.0,0.0,0.0,inf,inf,inf,inf,1,1,1,1,0,0,0,0,0,0,1,1,0,0,0
128132000,0,0,37.413534,-121.99656100000001,-0.011119493,0.0,-0.014999986,0.0,0.0,0.0,0.0,0.0,0.0,0.0,0.0,0.0,0.0,0.0,0.001,-0.002,-0.42846814,0.0,0.0,0.0,0.0,1.3000001,0.0,0.0,0.0,0.0,0.0,inf,inf,inf,inf,1,1,1,1,0,0,0,0,0,0,1,1,0,0,0
128152000,0,0,37.413534,-121.99656100000001,-0.011119493,0.0,-0.014999986,0.0,0.0,0.0,0.0,0.0,0.0,0.0,0.0,0.0,0.0,0.0,0.0,0.0,-0.42846814,0.0,0.0,0.0,0.0,1.3000001,0.0,0.0,0.0,0.0,0.0,inf,inf,inf,inf,1,1,1,1,0,0,0,0,0,0,1,1,0,0,0
128172000,0,0,37.413534,-121.99656100000001,-0.011119493,0.0,-0.014999986,0.0,0.0,0.0,0.0,0.0,0.0,0.0,0.0,0.0,0.0,0.0,0.0,0.0,-0.4284682,0.0,0.0,0.0,0.0,1.3000001,0.0,0.0,0.0,0.0,0.0,inf,inf,inf,inf,1,1,1,1,0,0,0,0,0,0,1,1,0,0,0
128192000,0,0,37.413534,-121.99656100000001,-0.011119493,0.0,-0.014999986,0.0,0.0,0.0,0.0,0.0,0.0,0.0,0.0,0.0,0.0,0.0,0.0,0.0,-0.4284683,0.0,0.0,0.0,0.0,1.3000001,0.0,0.0,0.0,0.0,0.0,inf,inf,inf,inf,1,1,1,1,0,0,0,0,0,0,1,1,0,0,0
128208000,0,0,37.413534,-121.99656100000001,-0.011119493,0.0,-0.014999986,0.0,0.0,0.0,0.0,0.0,0.0,0.0,0.0,0.0,0.0,0.0,0.0,0.0,-0.4284683,0.0,0.0,0.0,0.0,1.3000001,0.0,0.0,0.0,0.0,0.0,inf,inf,inf,inf,1,1,1,1,0,0,0,0,0,0,1,1,0,0,0
128232000,0,0,37.413534,-121.99656100000001,-0.011119493,0.0,-0.014999986,0.0,0.0,0.0,0.0,0.0,0.0,0.0,0.0,0.0,0.0,0.0,0.0,0.0,-0.42846832,0.0,0.0,0.0,0.0,1.3000001,0.0,0.0,0.0,0.0,0.0,inf,inf,inf,inf,1,1,1,1,0,0,0,0,0,0,1,1,0,0,0
128252000,0,0,37.413534,-121.99656100000001,-0.011119493,0.0,-0.014999986,0.0,0.0,0.0,0.0,0.0,0.0,0.0,0.0,0.0,0.0,0.0,-0.001,0.001,-0.42846838,0.0,0.0,0.0,0.0,1.3000001,0.0,0.0,0.0,0.0,0.0,inf,inf,inf,inf,1,1,1,1,0,0,0,0,0,0,1,1,0,0,0
128272000,0,0,37.413534,-121.99656100000001,-0.011119493,0.0,-0.014999986,0.0,0.0,0.0,0.0,0.0,0.0,0.0,0.0,0.0,0.0,0.0,0.0,0.0,-0.4284684,0.0,0.0,0.0,0.0,1.3000001,0.0,0.0,0.0,0.0,0.0,inf,inf,inf,inf,1,1,1,1,0,0,0,0,0,0,1,1,0,0,0
128292000,0,0,37.413534,-121.99656100000001,-0.011119493,0.0,-0.014999986,0.0,0.0,0.0,0.0,0.0,0.0,0.0,0.0,0.0,0.0,0.0,0.001,-0.001,-0.42846847,0.0,0.0,0.0,0.0,1.3000001,0.0,0.0,0.0,0.0,0.0,inf,inf,inf,inf,1,1,1,1,0,0,0,0,0,0,1,1,0,0,0
128312000,0,0,37.413534,-121.99656100000001,-0.011119493,0.0,-0.014999986,0.0,0.0,0.0,0.0,0.0,0.0,0.0,0.0,0.0,0.0,0.0,0.0,0.0,-0.42846853,0.0,0.0,0.0,0.0,1.3000001,0.0,0.0,0.0,0.0,0.0,inf,inf,inf,inf,1,1,1,1,0,0,0,0,0,0,1,1,0,0,0
128332000,0,0,37.413534,-121.99656100000001,-0.011119493,0.0,-0.014999986,0.0,0.0,0.0,0.0,0.0,0.0,0.0,0.0,0.0,0.0,0.0,0.0,0.0,-0.42846859,0.0,0.0,0.0,0.0,1.3000001,0.0,0.0,0.0,0.0,0.0,inf,inf,inf,inf,1,1,1,1,0,0,0,0,0,0,1,1,0,0,0
128352000,0,0,37.413534,-121.99656100000001,-0.011119493,0.0,-0.014999986,0.0,0.0,0.0,0.0,0.0,0.0,0.0,0.0,0.0,0.0,0.0,0.001,0.001,-0.42846859,0.0,0.0,0.0,0.0,1.3000001,0.0,0.0,0.0,0.0,0.0,inf,inf,inf,inf,1,1,1,1,0,0,0,0,0,0,1,1,0,0,0
128372000,0,0,37.413534,-121.99656100000001,-0.011119493,0.0,-0.014999986,0.0,0.0,0.0,0.0,0.0,0.0,0.0,0.0,0.0,0.0,0.0,0.0,0.0,-0.42846864,0.0,0.0,0.0,0.0,1.3000001,0.0,0.0,0.0,0.0,0.0,inf,inf,inf,inf,1,1,1,1,0,0,0,0,0,0,1,1,0,0,0
128392000,0,0,37.413534,-121.99656100000001,-0.011119493,0.0,-0.014999986,0.0,0.0,0.0,0.0,0.0,0.0,0.0,0.0,0.0,0.0,0.0,0.0,0.0,-0.4284687,0.0,0.0,0.0,0.0,1.3000001,0.0,0.0,0.0,0.0,0.0,inf,inf,inf,inf,1,1,1,1,0,0,0,0,0,0,1,1,0,0,0
128412000,0,0,37.413534,-121.99656100000001,-0.011119493,0.0,-0.014999986,0.0,0.0,0.0,0.0,0.0,0.0,0.0,0.0,0.0,0.0,0.0,0.0,0.0,-0.42846873,0.0,0.0,0.0,0.0,1.3000001,0.0,0.0,0.0,0.0,0.0,inf,inf,inf,inf,1,1,1,1,0,0,0,0,0,0,1,1,0,0,0
128432000,0,0,37.413534,-121.99656100000001,-0.011119493,0.0,-0.014999986,0.0,0.0,0.0,0.0,0.0,0.0,0.0,0.0,0.0,0.0,0.0,0.0,0.0,-0.42846882,0.0,0.0,0.0,0.0,1.3000001,0.0,0.0,0.0,0.0,0.0,inf,inf,inf,inf,1,1,1,1,0,0,0,0,0,0,1,1,0,0,0
128452000,0,0,37.413534,-121.99656100000001,-0.011119493,0.0,-0.014999986,0.0,0.0,0.0,0.0,0.0,0.0,0.0,0.0,0.0,0.0,0.0,0.0,0.0,-0.42846882,0.0,0.0,0.0,0.0,1.3000001,0.0,0.0,0.0,0.0,0.0,inf,inf,inf,inf,1,1,1,1,0,0,0,0,0,0,1,1,0,0,0
128472000,0,0,37.413534,-121.99656100000001,-0.011119493,0.0,-0.014999986,0.0,0.0,0.0,0.0,0.0,0.0,0.0,0.0,0.0,0.0,0.0,0.0,0.0,-0.42846882,0.0,0.0,0.0,0.0,1.3000001,0.0,0.0,0.0,0.0,0.0,inf,inf,inf,inf,1,1,1,1,0,0,0,0,0,0,1,1,0,0,0
128492000,0,0,37.413534,-121.99656100000001,-0.011119493,0.0,-0.014999986,0.0,0.0,0.0,0.0,0.0,0.0,0.0,0.0,0.0,0.0,0.0,0.0,-0.004,-0.4284689,0.0,0.0,0.0,0.0,1.3000001,0.0,0.0,0.0,0.0,0.0,inf,inf,inf,inf,1,1,1,1,0,0,0,0,0,0,1,1,0,0,0
128512000,0,0,37.413534,-121.99656100000001,-0.011119493,0.0,-0.014999986,0.0,0.0,0.0,0.0,0.0,0.0,0.0,0.0,0.0,0.0,0.0,0.0,-0.004,-0.42846897,0.0,0.0,0.0,0.0,1.3000001,0.0,0.0,0.0,0.0,0.0,inf,inf,inf,inf,1,1,1,1,0,0,0,0,0,0,1,1,0,0,0
128532000,0,0,37.413534,-121.99656100000001,-0.011119493,0.0,-0.014999986,0.0,0.0,0.0,0.0,0.0,0.0,0.0,0.0,0.0,0.0,0.0,0.0,0.004,-0.42846897,0.0,0.0,0.0,0.0,1.3000001,0.0,0.0,0.0,0.0,0.0,inf,inf,inf,inf,1,1,1,1,0,0,0,0,0,0,1,1,0,0,0
128552000,0,0,37.413534,-121.99656100000001,-0.011119493,0.0,-0.014999986,0.0,0.0,0.0,0.0,0.0,0.0,0.0,0.0,0.0,0.0,0.0,0.0,0.0,-0.428469,0.0,0.0,0.0,0.0,1.3000001,0.0,0.0,0.0,0.0,0.0,inf,inf,inf,inf,1,1,1,1,0,0,0,0,0,0,1,1,0,0,0
128572000,0,0,37.413534,-121.99656100000001,-0.011119493,0.0,-0.014999986,0.0,0.0,0.0,0.0,0.0,0.0,0.0,0.0,0.0,0.0,0.0,0.0,0.0,-0.42846906,0.0,0.0,0.0,0.0,1.3000001,0.0,0.0,0.0,0.0,0.0,inf,inf,inf,inf,1,1,1,1,0,0,0,0,0,0,1,1,0,0,0
128592000,0,0,37.413534,-121.99656100000001,-0.011119493,0.0,-0.014999986,0.0,0.0,0.0,0.0,0.0,0.0,0.0,0.0,0.0,0.0,0.0,0.0,0.0,-0.42846906,0.0,0.0,0.0,0.0,1.3000001,0.0,0.0,0.0,0.0,0.0,inf,inf,inf,inf,1,1,1,1,0,0,0,0,0,0,1,1,0,0,0
128612000,0,0,37.413534,-121.99656100000001,-0.011119493,0.0,-0.014999986,0.0,0.0,0.0,0.0,0.0,0.0,0.0,0.0,0.0,0.0,0.0,0.0,0.0,-0.42846915,0.0,0.0,0.0,0.0,1.3000001,0.0,0.0,0.0,0.0,0.0,inf,inf,inf,inf,1,1,1,1,0,0,0,0,0,0,1,1,0,0,0
128632000,0,0,37.413534,-121.99656100000001,-0.011119493,0.0,-0.014999986,0.0,0.0,0.0,0.0,0.0,0.0,0.0,0.0,0.0,0.0,0.0,0.0,0.0,-0.42846915,0.0,0.0,0.0,0.0,1.3000001,0.0,0.0,0.0,0.0,0.0,inf,inf,inf,inf,1,1,1,1,0,0,0,0,0,0,1,1,0,0,0
128652000,0,0,37.413534,-121.99656100000001,-0.011119493,0.0,-0.014999986,0.0,0.0,0.0,0.0,0.0,0.0,0.0,0.0,0.0,0.0,0.001,-0.034,-0.063,-0.42846912,0.0,0.0,0.0,0.0,1.3000001,0.0,0.0,0.0,0.0,0.0,inf,inf,inf,inf,1,1,1,1,0,0,0,0,0,0,1,1,0,0,0
128672000,0,0,37.413534,-121.99656100000001,-0.011119493,0.0,-0.014999986,0.0,0.0,0.0,0.0,0.0,0.0,0.0,0.0,0.0,0.0,0.0,0.0,0.0,-0.4284692,0.0,0.0,0.0,0.0,1.3000001,0.0,0.0,0.0,0.0,0.0,inf,inf,inf,inf,1,1,1,1,0,0,0,0,0,0,1,1,0,0,0
128692000,0,0,37.413534,-121.99656100000001,-0.011119493,0.0,-0.014999986,0.0,0.0,0.0,0.0,0.0,0.0,0.0,0.0,0.0,0.0,-0.018000001,0.089,0.116000004,-0.4284691,0.0,0.0,0.0,0.0,1.3000001,0.0,0.0,0.0,0.0,0.0,inf,inf,inf,inf,1,1,1,1,0,0,0,0,0,0,1,1,0,0,0
128712000,0,0,37.413534,-121.99656100000001,-0.011119493,0.0,-0.014999986,0.0,0.0,0.0,0.0,0.0,0.0,0.0,0.0,0.0,0.0,0.0,0.0,0.0,-0.4284691,0.0,0.0,0.0,0.0,1.3000001,0.0,0.0,0.0,0.0,0.0,inf,inf,inf,inf,1,1,1,1,0,0,0,0,0,0,1,1,0,0,0
128732000,0,0,37.413534,-121.99656100000001,-0.011119493,0.0,-0.014999986,0.0,0.0,0.0,0.0,0.0,0.0,0.0,0.0,0.0,0.0,0.0,0.0,0.0,-0.42846912,0.0,0.0,0.0,0.0,1.3000001,0.0,0.0,0.0,0.0,0.0,inf,inf,inf,inf,1,1,1,1,0,0,0,0,0,0,1,1,0,0,0
128752000,0,0,37.413534,-121.99656100000001,-0.011119493,0.0,-0.014999986,0.0,0.0,0.0,0.0,0.0,0.0,0.0,0.0,0.0,0.0,0.0,0.0,-0.004,-0.4284692,0.0,0.0,0.0,0.0,1.3000001,0.0,0.0,0.0,0.0,0.0,inf,inf,inf,inf,1,1,1,1,0,0,0,0,0,0,1,1,0,0,0
128772000,0,0,37.413534,-121.99656100000001,-0.011119493,0.0,-0.014999986,0.0,0.0,0.0,0.0,0.0,0.0,0.0,0.0,0.0,0.0,0.0,0.0,0.0,-0.4284692,0.0,0.0,0.0,0.0,1.3000001,0.0,0.0,0.0,0.0,0.0,inf,inf,inf,inf,1,1,1,1,0,0,0,0,0,0,1,1,0,0,0
128792000,0,0,37.413534,-121.99656100000001,-0.011119493,0.0,-0.014999986,0.0,0.0,0.0,0.0,0.0,0.0,0.0,0.0,0.0,0.0,0.0,0.0,0.004,-0.42846927,0.0,0.0,0.0,0.0,1.3000001,0.0,0.0,0.0,0.0,0.0,inf,inf,inf,inf,1,1,1,1,0,0,0,0,0,0,1,1,0,0,0
128812000,0,0,37.413534,-121.99656100000001,-0.011119493,0.0,-0.014999986,0.0,0.0,0.0,0.0,0.0,0.0,0.0,0.0,0.0,0.0,0.001,-0.002,0.0050000004,-0.42846924,0.0,0.0,0.0,0.0,1.3000001,0.0,0.0,0.0,0.0,0.0,inf,inf,inf,inf,1,1,1,1,0,0,0,0,0,0,1,1,0,0,0
128832000,0,0,37.413534,-121.99656100000001,-0.011119493,0.0,-0.014999986,0.0,0.0,0.0,0.0,0.0,0.0,0.0,0.0,0.0,0.0,0.0,0.0,0.0,-0.42846927,0.0,0.0,0.0,0.0,1.3000001,0.0,0.0,0.0,0.0,0.0,inf,inf,inf,inf,1,1,1,1,0,0,0,0,0,0,1,1,0,0,0
128852000,0,0,37.413534,-121.99656100000001,-0.011119493,0.0,-0.014999986,0.0,0.0,0.0,0.0,0.0,0.0,0.0,0.0,0.0,0.0,0.0,-0.001,0.0,-0.42846924,0.0,0.0,0.0,0.0,1.3000001,0.0,0.0,0.0,0.0,0.0,inf,inf,inf,inf,1,1,1,1,0,0,0,0,0,0,1,1,0,0,0
128872000,0,0,37.413534,-121.99656100000001,-0.011119493,0.0,-0.014999986,0.0,0.0,0.0,0.0,0.0,0.0,0.0,0.0,0.0,0.0,0.018000001,-0.093,-0.116000004,-0.42846912,0.0,0.0,0.0,0.0,1.3000001,0.0,0.0,0.0,0.0,0.0,inf,inf,inf,inf,1,1,1,1,0,0,0,0,0,0,1,1,0,0,0
128892000,0,0,37.413534,-121.99656100000001,-0.011119493,0.0,-0.014999986,0.0,0.0,0.0,0.0,0.0,0.0,0.0,0.0,0.0,0.0,0.0,0.0,0.0,-0.42846918,0.0,0.0,0.0,0.0,1.3000001,0.0,0.0,0.0,0.0,0.0,inf,inf,inf,inf,1,1,1,1,0,0,0,0,0,0,1,1,0,0,0
128912000,0,0,37.413534,-121.99656100000001,-0.011119493,0.0,-0.014999986,0.0,0.0,0.0,0.0,0.0,0.0,0.0,0.0,0.0,0.0,0.0,0.0,0.0,-0.42846915,0.0,0.0,0.0,0.0,1.3000001,0.0,0.0,0.0,0.0,0.0,inf,inf,inf,inf,1,1,1,1,0,0,0,0,0,0,1,1,0,0,0
128932000,0,0,37.413534,-121.99656100000001,-0.011119493,0.0,-0.014999986,0.0,0.0,0.0,0.0,0.0,0.0,0.0,0.0,0.0,0.0,0.0,0.0,0.0,-0.42846924,0.0,0.0,0.0,0.0,1.3000001,0.0,0.0,0.0,0.0,0.0,inf,inf,inf,inf,1,1,1,1,0,0,0,0,0,0,1,1,0,0,0
128952000,0,0,37.413534,-121.99656100000001,-0.011119493,0.0,-0.014999986,0.0,0.0,0.0,0.0,0.0,0.0,0.0,0.0,0.0,0.0,0.0,0.0,0.0,-0.42846927,0.0,0.0,0.0,0.0,1.3000001,0.0,0.0,0.0,0.0,0.0,inf,inf,inf,inf,1,1,1,1,0,0,0,0,0,0,1,1,0,0,0
128972000,0,0,37.413534,-121.99656100000001,-0.011119493,0.0,-0.014999986,0.0,0.0,0.0,0.0,0.0,0.0,0.0,0.0,0.0,0.0,0.0,0.0,0.0,-0.42846933,0.0,0.0,0.0,0.0,1.3000001,0.0,0.0,0.0,0.0,0.0,inf,inf,inf,inf,1,1,1,1,0,0,0,0,0,0,1,1,0,0,0
128992000,0,0,37.413534,-121.99656100000001,-0.011119493,0.0,-0.014999986,0.0,0.0,0.0,0.0,0.0,0.0,0.0,0.0,0.0,0.0,0.001,-0.034,-0.063,-0.4284693,0.0,0.0,0.0,0.0,1.3000001,0.0,0.0,0.0,0.0,0.0,inf,inf,inf,inf,1,1,1,1,0,0,0,0,0,0,1,1,0,0,0
129012000,0,0,37.413534,-121.99656100000001,-0.011119493,0.0,-0.014999986,0.0,0.0,0.0,0.0,0.0,0.0,0.0,0.0,0.0,0.0,0.0,0.0,0.0,-0.42846933,0.0,0.0,0.0,0.0,1.3000001,0.0,0.0,0.0,0.0,0.0,inf,inf,inf,inf,1,1,1,1,0,0,0,0,0,0,1,1,0,0,0
129032000,0,0,37.413534,-121.99656100000001,-0.011119493,0.0,-0.014999986,0.0,0.0,0.0,0.0,0.0,0.0,0.0,0.0,0.0,0.0,-0.001,0.031000001,0.064,-0.4284693,0.0,0.0,0.0,0.0,1.3000001,0.0,0.0,0.0,0.0,0.0,inf,inf,inf,inf,1,1,1,1,0,0,0,0,0,0,1,1,0,0,0
129052000,0,0,37.413534,-121.99656100000001,-0.011119493,0.0,-0.014999986,0.0,0.0,0.0,0.0,0.0,0.0,0.0,0.0,0.0,0.0,0.0,0.0,0.004,-0.42846936,0.0,0.0,0.0,0.0,1.3000001,0.0,0.0,0.0,0.0,0.0,inf,inf,inf,inf,1,1,1,1,0,0,0,0,0,0,1,1,0,0,0
129072000,0,0,37.413534,-121.99656100000001,-0.011119493,0.0,-0.014999986,0.0,0.0,0.0,0.0,0.0,0.0,0.0,0.0,0.0,0.0,0.0,-0.001,0.0,-0.4284693,0.0,0.0,0.0,0.0,1.3000001,0.0,0.0,0.0,0.0,0.0,inf,inf,inf,inf,1,1,1,1,0,0,0,0,0,0,1,1,0,0,0
129092000,0,0,37.413534,-121.99656100000001,-0.011119493,0.0,-0.014999986,0.0,0.0,0.0,0.0,0.0,0.0,0.0,0.0,0.0,0.0,0.0,0.0,0.0,-0.42846936,0.0,0.0,0.0,0.0,1.3000001,0.0,0.0,0.0,0.0,0.0,inf,inf,inf,inf,1,1,1,1,0,0,0,0,0,0,1,1,0,0,0
129112000,0,0,37.413534,-121.99656100000001,-0.011119493,0.0,-0.014999986,0.0,0.0,0.0,0.0,0.0,0.0,0.0,0.0,0.0,0.0,0.0,0.0,0.0,-0.42846933,0.0,0.0,0.0,0.0,1.3000001,0.0,0.0,0.0,0.0,0.0,inf,inf,inf,inf,1,1,1,1,0,0,0,0,0,0,1,1,0,0,0
129128000,0,0,37.413534,-121.99656100000001,-0.011119493,0.0,-0.014999986,0.0,0.0,0.0,0.0,0.0,0.0,0.0,0.0,0.0,0.0,0.001,-0.034,-0.063,-0.4284693,0.0,0.0,0.0,0.0,1.3000001,0.0,0.0,0.0,0.0,0.0,inf,inf,inf,inf,1,1,1,1,0,0,0,0,0,0,1,1,0,0,0
129152000,0,0,37.413534,-121.99656100000001,-0.011119493,0.0,-0.014999986,0.0,0.0,0.0,0.0,0.0,0.0,0.0,0.0,0.0,0.0,0.0,0.0,-0.004,-0.42846933,0.0,0.0,0.0,0.0,1.3000001,0.0,0.0,0.0,0.0,0.0,inf,inf,inf,inf,1,1,1,1,0,0,0,0,0,0,1,1,0,0,0
129172000,0,0,37.413534,-121.99656100000001,-0.011119493,0.0,-0.014999986,0.0,0.0,0.0,0.0,0.0,0.0,0.0,0.0,0.0,0.0,-0.001,0.004,-0.006,-0.4284693,0.0,0.0,0.0,0.0,1.3000001,0.0,0.0,0.0,0.0,0.0,inf,inf,inf,inf,1,1,1,1,0,0,0,0,0,0,1,1,0,0,0
129192000,0,0,37.413534,-121.99656100000001,-0.011119493,0.0,-0.014999986,0.0,0.0,0.0,0.0,0.0,0.0,0.0,0.0,0.0,0.0,0.0,0.0,0.0,-0.42846933,0.0,0.0,0.0,0.0,1.3000001,0.0,0.0,0.0,0.0,0.0,inf,inf,inf,inf,1,1,1,1,0,0,0,0,0,0,1,1,0,0,0
129212000,0,0,37.413534,-121.99656100000001,-0.011119493,0.0,-0.014999986,0.0,0.0,0.0,0.0,0.0,0.0,0.0,0.0,0.0,0.0,0.0,-0.001,0.0,-0.4284693,0.0,0.0,0.0,0.0,1.3000001,0.0,0.0,0.0,0.0,0.0,inf,inf,inf,inf,1,1,1,1,0,0,0,0,0,0,1,1,0,0,0
129232000,0,0,37.413534,-121.99656100000001,-0.011119493,0.0,-0.014999986,0.0,0.0,0.0,0.0,0.0,0.0,0.0,0.0,0.0,0.0,0.0,0.0,0.0,-0.42846936,0.0,0.0,0.0,0.0,1.3000001,0.0,0.0,0.0,0.0,0.0,inf,inf,inf,inf,1,1,1,1,0,0,0,0,0,0,1,1,0,0,0
129252000,0,0,37.413534,-121.99656100000001,-0.011119493,0.0,-0.014999986,0.0,0.0,0.0,0.0,0.0,0.0,0.0,0.0,0.0,0.0,-0.002,-0.012,-0.006,-0.42846948,0.0,0.0,0.0,0.0,1.3000001,0.0,0.0,0.0,0.0,0.0,inf,inf,inf,inf,1,1,1,1,0,0,0,0,0,0,1,1,0,0,0
129272000,0,0,37.413534,-121.99656100000001,-0.011119493,0.0,-0.014999986,0.0,0.0,0.0,0.0,0.0,0.0,0.0,0.0,0.0,0.0,-0.078,0.3,-0.28300002,-0.42847064,0.0,0.0,0.0,0.0,1.3000001,0.0,0.0,0.0,0.0,0.0,inf,inf,inf,inf,1,1,1,1,0,0,0,0,0,0,1,1,0,0,0
129292000,0,0,37.413534,-121.99656100000001,-0.011119493,0.0,-0.014999986,0.0,0.0,0.0,0.0,0.0,0.0,0.0,0.0,0.0,0.0,-0.076000005,0.277,0.027,-0.42847028,0.0,0.0,0.0,0.0,1.3000001,0.0,0.0,0.0,0.0,0.0,inf,inf,inf,inf,1,1,1,1,0,0,0,0,0,0,1,1,0,0,0
129312000,0,0,37.413534,-121.99656100000001,-0.011119493,0.0,-0.014999986,0.0,0.0,0.0,0.0,0.0,0.0,0.0,0.0,0.0,0.0,0.076000005,-0.275,0.041,-0.4284707,0.0,0.0,0.0,0.0,1.3000001,0.0,0.0,0.0,0.0,0.0,inf,inf,inf,inf,1,1,1,1,0,0,0,0,0,0,1,1,0,0,0
129332000,0,0,37.413534,-121.99656100000001,-0.011119493,0.0,-0.014999986,0.0,0.0,0.0,0.0,0.0,0.0,0.0,0.0,0.0,0.0,-0.072000004,0.23300001,0.124000005,-0.42847097,0.0,0.0,0.0,0.0,1.3000001,0.0,0.0,0.0,0.0,0.0,inf,inf,inf,inf,1,1,1,1,0,0,0,0,0,0,1,1,0,0,0
129352000,0,0,37.413534,-121.99656100000001,-0.011119493,0.0,-0.014999986,0.0,0.0,0.0,0.0,0.0,0.0,0.0,0.0,0.0,0.0,0.120000005,-0.439,0.156,-0.42847145,0.0,0.0,0.0,0.0,1.3000001,0.0,0.0,0.0,0.0,0.0,inf,inf,inf,inf,1,1,1,1,0,0,0,0,0,0,1,1,0,0,0
129372000,0,0,37.413534,-121.99656100000001,-0.011119493,0.0,-0.014999986,0.0,0.0,0.0,0.0,0.0,0.0,0.0,0.0,0.0,0.0,0.042000003,-0.156,0.002,-0.42847168,0.0,0.0,0.0,0.0,1.3000001,0.0,0.0,0.0,0.0,0.0,inf,inf,inf,inf,1,1,1,1,0,0,0,0,0,0,1,1,0,0,0
129392000,0,0,37.413534,-121.99656100000001,-0.011119493,0.0,-0.014999986,0.0,0.0,0.0,0.0,0.0,0.0,0.0,0.0,0.0,0.0,-0.086,0.26200002,-0.071,-0.42847157,0.0,0.0,0.0,0.0,1.3000001,0.0,0.0,0.0,0.0,0.0,inf,inf,inf,inf,1,1,1,1,0,0,0,0,0,0,1,1,0,0,0
129412000,0,0,37.413534,-121.99656100000001,-0.011119493,0.0,-0.014999986,0.0,0.0,0.0,0.0,0.0,0.0,0.0,0.0,0.0,0.0,0.739,-0.98800004,1.4920001,-0.42846993,0.0,0.0,0.0,0.0,1.3000001,0.0,0.0,0.0,0.0,0.0,inf,inf,inf,inf,1,1,1,1,0,0,0,0,0,0,1,1,0,0,0
129432000,0,0,37.413534,-121.99656100000001,-0.011119493,0.0,-0.014999986,0.0,0.0,0.0,0.0,0.0,0.0,0.0,0.0,0.0,0.0,0.157,-0.587,0.36900002,-0.42847037,0.0,0.0,0.0,0.0,1.3000001,0.0,0.0,0.0,0.0,0.0,inf,inf,inf,inf,1,1,1,1,0,0,0,0,0,0,1,1,0,0,0
129452000,0,0,37.413534,-121.99656100000001,-0.011119493,0.0,-0.014999986,0.0,0.0,0.0,0.0,0.0,0.0,0.0,0.0,0.0,0.0,0.014,-0.066,-0.043,-0.42847073,0.0,0.0,0.0,0.0,1.3000001,0.0,0.0,0.0,0.0,0.0,inf,inf,inf,inf,1,1,1,1,0,0,0,0,0,0,1,1,0,0,0
129472000,0,0,37.413534,-121.99656100000001,-0.011119493,0.0,-0.014999986,0.0,0.0,0.0,0.0,0.0,0.0,0.0,0.0,0.0,0.0,0.015000001,-0.067,-0.041,-0.42847094,0.0,0.0,0.0,0.0,1.3000001,0.0,0.0,0.0,0.0,0.0,inf,inf,inf,inf,1,1,1,1,0,0,0,0,0,0,1,1,0,0,0
129492000,0,0,37.413534,-121.99656100000001,-0.011119493,0.0,-0.014999986,0.0,0.0,0.0,0.0,0.0,0.0,0.0,0.0,0.0,0.0,-0.036000002,0.14,-0.112,-0.42847165,0.0,0.0,0.0,0.0,1.3000001,0.0,0.0,0.0,0.0,0.0,inf,inf,inf,inf,1,1,1,1,0,0,0,0,0,0,1,1,0,0,0
129512000,0,0,37.413534,-121.99656100000001,-0.011119493,0.0,-0.014999986,0.0,0.0,0.0,0.0,0.0,0.0,0.0,0.0,0.0,0.0,0.127,-0.42700002,0.060000002,-0.42847103,0.0,0.0,0.0,0.0,1.3000001,0.0,0.0,0.0,0.0,0.0,inf,inf,inf,inf,1,1,1,1,0,0,0,0,0,0,1,1,0,0,0
129532000,0,0,37.413534,-121.99656100000001,-0.011119493,0.0,-0.014999986,0.0,0.0,0.0,0.0,0.0,0.02,0.0,0.0,0.0,0.0,1.6070001,-0.573,6.2850003,-0.4284669,0.0,0.0,0.0,0.0,1.3000001,0.0,0.0,0.0,0.0,0.0,inf,inf,inf,inf,1,1,1,1,0,0,0,0,0,0,1,1,0,0,0
129552000,0,0,37.413534,-121.99656100000001,-0.011119493,0.0,-0.014999986,0.0,0.0,0.0,0.0,0.0,0.0,0.0,0.0,0.0,0.0,0.0,0.0,0.0,-0.42846632,0.0,0.0,0.0,0.0,1.3000001,0.0,0.0,0.0,0.0,0.0,inf,inf,inf,inf,1,1,1,1,0,0,0,0,0,0,1,1,0,0,0
129572000,0,0,37.413534,-121.99656100000001,-0.011119493,0.0,-0.014999986,0.0,0.0,0.0,0.0,0.0,0.0,0.0,0.0,0.0,0.0,0.0,0.0,0.0,-0.42846602,0.0,0.0,0.0,0.0,1.3000001,0.0,0.0,0.0,0.0,0.0,inf,inf,inf,inf,1,1,1,1,0,0,0,0,0,0,1,1,0,0,0
129592000,0,0,37.413534,-121.99656100000001,-0.011119493,0.0,-0.014999986,0.0,0.0,0.0,0.0,0.0,0.0,0.0,0.0,0.0,0.0,0.0,0.0,0.0,-0.42846566,0.0,0.0,0.0,0.0,1.3000001,0.0,0.0,0.0,0.0,0.0,inf,inf,inf,inf,1,1,1,1,0,0,0,0,0,0,1,1,0,0,0
129612000,0,0,37.413534,-121.99656100000001,-0.011119493,0.0,-0.014999986,0.0,0.0,0.0,0.0,0.0,0.0,0.0,0.0,0.0,0.0,0.0,0.0,0.0,-0.42846534,0.0,0.0,0.0,0.0,1.3000001,0.0,0.0,0.0,0.0,0.0,inf,inf,inf,inf,1,1,1,1,0,0,0,0,0,0,1,1,0,0,0
129632000,0,0,37.413534,-121.99656100000001,-0.011119493,0.0,-0.014999986,0.0,0.0,0.0,0.0,0.0,0.0,0.0,0.0,0.0,0.0,0.0,0.0,0.0,-0.428465,0.0,0.0,0.0,0.0,1.3000001,0.0,0.0,0.0,0.0,0.0,inf,inf,inf,inf,1,1,1,1,0,0,0,0,0,0,1,1,0,0,0
129652000,0,0,37.413534,-121.99656100000001,-0.011119493,0.0,-0.014999986,0.0,0.0,0.0,0.0,0.0,0.0,0.0,0.0,0.0,0.0,0.0,-0.001,-0.001,-0.4284645,0.0,0.0,0.0,0.0,1.3000001,0.0,0.0,0.0,0.0,0.0,inf,inf,inf,inf,1,1,1,1,0,0,0,0,0,0,1,1,0,0,0
129672000,0,0,37.413534,-121.99656100000001,-0.011119493,0.0,-0.014999986,0.0,0.0,0.0,0.0,0.0,0.0,0.0,0.0,0.0,0.0,-0.001,0.007,0.0050000004,-0.42846483,0.0,0.0,0.0,0.0,1.3000001,0.0,0.0,0.0,0.0,0.0,inf,inf,inf,inf,1,1,1,1,0,0,0,0,0,0,1,1,0,0,0
129692000,0,0,37.413534,-121.99656100000001,-0.011119493,0.0,-0.014999986,0.0,0.0,0.0,0.0,0.0,0.0,0.0,0.0,0.0,0.0,-0.001,0.007,0.0050000004,-0.4284652,0.0,0.0,0.0,0.0,1.3000001,0.0,0.0,0.0,0.0,0.0,inf,inf,inf,inf,1,1,1,1,0,0,0,0,0,0,1,1,0,0,0
129712000,0,0,37.413534,-121.99656100000001,-0.011119493,0.0,-0.014999986,0.0,0.0,0.0,0.0,0.0,0.0,0.0,0.0,0.0,0.0,-0.002,0.012,0.009000001,-0.42846546,0.0,0.0,0.0,0.0,1.3000001,0.0,0.0,0.0,0.0,0.0,inf,inf,inf,inf,1,1,1,1,0,0,0,0,0,0,1,1,0,0,0
129732000,0,0,37.413534,-121.99656100000001,-0.011119493,0.0,-0.014999986,0.0,0.0,0.0,0.0,0.0,0.0,0.0,0.0,0.0,0.0,-0.097,0.36800003,-0.202,-0.4284663,0.0,0.0,0.0,0.0,1.3000001,0.0,0.0,0.0,0.0,0.0,inf,inf,inf,inf,1,1,1,1,0,0,0,0,0,0,1,1,0,0,0
129752000,0,0,37.413534,-121.99656100000001,-0.011119493,0.0,-0.014999986,0.0,0.0,0.0,0.0,0.0,0.0,0.0,0.0,0.0,0.0,-0.09,0.34500003,-0.164,-0.42846644,0.0,0.0,0.0,0.0,1.3000001,0.0,0.0,0.0,0.0,0.0,inf,inf,inf,inf,1,1,1,1,0,0,0,0,0,0,1,1,0,0,0
129772000,0,0,37.413534,-121.99656100000001,-0.011119493,0.0,-0.014999986,0.0,0.0,0.0,0.0,0.0,0.0,0.0,0.0,0.0,0.0,0.040000003,-0.143,-0.097,-0.42846647,0.0,0.0,0.0,0.0,1.3000001,0.0,0.0,0.0,0.0,0.0,inf,inf,inf,inf,1,1,1,1,0,0,0,0,0,0,1,1,0,0,0
129792000,0,0,37.413534,-121.99656100000001,-0.011119493,0.0,-0.014999986,0.0,0.0,0.0,0.0,0.0,0.0,0.0,0.0,0.0,0.0,0.011000001,-0.057000004,-0.040000003,-0.4284669,0.0,0.0,0.0,0.0,1.3000001,0.0,0.0,0.0,0.0,0.0,inf,inf,inf,inf,1,1,1,1,0,0,0,0,0,0,1,1,0,0,0
129812000,0,0,37.413534,-121.99656100000001,-0.011119493,0.0,-0.014999986,0.0,0.0,0.0,0.0,0.0,0.0,0.0,0.0,0.0,0.0,0.062000003,-0.23500001,0.093,-0.42846724,0.0,0.0,0.0,0.0,1.3000001,0.0,0.0,0.0,0.0,0.0,inf,inf,inf,inf,1,1,1,1,0,0,0,0,0,0,1,1,0,0,0
129832000,0,0,37.413534,-121.99656100000001,-0.011119493,0.0,-0.014999986,0.0,0.0,0.0,0.0,0.0,0.0,0.0,0.0,0.0,0.0,0.083000004,-0.29200003,0.019000001,-0.42846736,0.0,0.0,0.0,0.0,1.3000001,0.0,0.0,0.0,0.0,0.0,inf,inf,inf,inf,1,1,1,1,0,0,0,0,0,0,1,1,0,0,0
129852000,0,0,37.413534,-121.99656100000001,-0.011119493,0.0,-0.014999986,0.0,0.0,0.0,0.0,0.0,0.0,0.0,0.0,0.0,0.0,0.0,0.0,0.0,-0.4284677,0.0,0.0,0.0,0.0,1.3000001,0.0,0.0,0.0,0.0,0.0,inf,inf,inf,inf,1,1,1,1,0,0,0,0,0,0,1,1,0,0,0
129872000,0,0,37.413534,-121.99656100000001,-0.011119493,0.0,-0.014999986,0.0,0.0,0.0,0.0,0.0,0.0,0.0,0.0,0.0,0.0,0.0,0.0,-0.001,-0.42846796,0.0,0.0,0.0,0.0,1.3000001,0.0,0.0,0.0,0.0,0.0,inf,inf,inf,inf,1,1,1,1,0,0,0,0,0,0,1,1,0,0,0
129892000,0,0,37.413534,-121.99656100000001,-0.011119493,0.0,-0.014999986,0.0,0.0,0.0,0.0,0.0,0.0,0.0,0.0,0.0,0.0,-0.064,0.208,0.13700001,-0.42846796,0.0,0.0,0.0,0.0,1.3000001,0.0,0.0,0.0,0.0,0.0,inf,inf,inf,inf,1,1,1,1,0,0,0,0,0,0,1,1,0,0,0
129912000,0,0,37.413534,-121.99656100000001,-0.011119493,0.0,-0.014999986,0.0,0.0,0.0,0.0,0.0,0.0,0.0,0.0,0.0,0.0,-0.055000003,0.19000001,0.13700001,-0.42846793,0.0,0.0,0.0,0.0,1.3000001,0.0,0.0,0.0,0.0,0.0,inf,inf,inf,inf,1,1,1,1,0,0,0,0,0,0,1,1,0,0,0
129932000,0,0,37.413534,-121.99656100000001,-0.011119493,0.0,-0.014999986,0.0,0.0,0.0,0.0,0.0,0.0,0.0,0.0,0.0,0.0,0.036000002,-0.126,-0.052,-0.42846853,0.0,0.0,0.0,0.0,1.3000001,0.0,0.0,0.0,0.0,0.0,inf,inf,inf,inf,1,1,1,1,0,0,0,0,0,0,1,1,0,0,0
129952000,0,0,37.413534,-121.99656100000001,-0.011119493,0.0,-0.014999986,0.0,0.0,0.0,0.0,0.0,0.0,0.0,0.0,0.0,0.0,-0.0050000004,0.020000001,-0.011000001,-0.4284628,0.0,0.0,0.0,0.0,1.3000001,0.0,0.0,0.0,0.0,0.0,inf,inf,inf,inf,1,1,1,1,0,0,0,0,0,0,1,1,0,0,0
129972000,0,0,37.413534,-121.99656100000001,-0.011119493,0.0,-0.014999986,0.0,0.0,0.0,0.0,0.0,0.0,0.0,0.0,0.0,0.0,-0.004,0.015000001,0.013,-0.42846197,0.0,0.0,0.0,0.0,1.3000001,0.0,0.0,0.0,0.0,0.0,inf,inf,inf,inf,1,1,1,1,0,0,0,0,0,0,1,1,0,0,0
129992000,0,0,37.413534,-121.99656100000001,-0.011119493,0.0,-0.014999986,0.0,0.0,0.0,0.0,0.0,0.0,0.0,0.0,0.0,0.0,0.0,-0.001,0.0,-0.42846155,0.0,0.0,0.0,0.0,1.3000001,0.0,0.0,0.0,0.0,0.0,inf,inf,inf,inf,1,1,1,1,0,0,0,0,0,0,1,1,0,0,0
130012000,0,0,37.413534,-121.99656100000001,-0.011119493,0.0,-0.014999986,0.0,0.0,0.0,0.0,0.0,0.0,0.0,0.0,0.0,0.0,0.0,0.0,0.0,-0.42846125,0.0,0.0,0.0,0.0,1.3000001,0.0,0.0,0.0,0.0,0.0,inf,inf,inf,inf,1,1,1,1,0,0,0,0,0,0,1,1,0,0,0
130032000,0,0,37.413534,-121.99656100000001,-0.011119493,0.0,-0.014999986,0.0,0.0,0.0,0.0,0.0,0.0,0.0,0.0,0.0,0.0,0.002,-0.011000001,-0.008,-0.42846072,0.0,0.0,0.0,0.0,1.3000001,0.0,0.0,0.0,0.0,0.0,inf,inf,inf,inf,1,1,1,1,0,0,0,0,0,0,1,1,0,0,0
130052000,0,0,37.413534,-121.99656100000001,-0.011119493,0.0,-0.014999986,0.0,0.0,0.0,0.0,0.0,0.0,0.0,0.0,0.0,0.0,0.0,0.0,0.0,-0.4284603,0.0,0.0,0.0,0.0,1.3000001,0.0,0.0,0.0,0.0,0.0,inf,inf,inf,inf,1,1,1,1,0,0,0,0,0,0,1,1,0,0,0
130072000,0,0,37.413534,-121.99656100000001,-0.011119493,0.0,-0.014999986,0.0,0.0,0.0,0.0,0.0,0.0,0.0,0.0,0.0,0.0,0.0,0.0,0.0,-0.4284599,0.0,0.0,0.0,0.0,1.3000001,0.0,0.0,0.0,0.0,0.0,inf,inf,inf,inf,1,1,1,1,0,0,0,0,0,0,1,1,0,0,0
130092000,0,0,37.413534,-121.99656100000001,-0.011119493,0.0,-0.014999986,0.0,0.0,0.0,0.0,0.0,0.0,0.0,0.0,0.0,0.0,0.0,0.0,0.0,-0.42845958,0.0,0.0,0.0,0.0,1.3000001,0.0,0.0,0.0,0.0,0.0,inf,inf,inf,inf,1,1,1,1,0,0,0,0,0,0,1,1,0,0,0
130112000,0,0,37.413534,-121.99656100000001,-0.011119493,0.0,-0.014999986,0.0,0.0,0.0,0.0,0.0,0.0,0.0,0.0,0.0,0.0,0.004,-0.045,-0.030000001,-0.42845967,0.0,0.0,0.0,0.0,1.3000001,0.0,0.0,0.0,0.0,0.0,inf,inf,inf,inf,1,1,1,1,0,0,0,0,0,0,1,1,0,0,0
130132000,0,0,37.413534,-121.99656100000001,-0.011119493,0.0,-0.014999986,0.0,0.0,0.0,0.0,0.0,0.0,0.0,0.0,0.0,0.0,-0.001,0.007,0.006,-0.42846006,0.0,0.0,0.0,0.0,1.3000001,0.0,0.0,0.0,0.0,0.0,inf,inf,inf,inf,1,1,1,1,0,0,0,0,0,0,1,1,0,0,0
130152000,0,0,37.413534,-121.99656100000001,-0.011119493,0.0,-0.014999986,0.0,0.0,0.0,0.0,0.0,0.0,0.0,0.0,0.0,0.0,-0.002,0.012,0.009000001,-0.42846042,0.0,0.0,0.0,0.0,1.3000001,0.0,0.0,0.0,0.0,0.0,inf,inf,inf,inf,1,1,1,1,0,0,0,0,0,0,1,1,0,0,0
130172000,0,0,37.413534,-121.99656100000001,-0.011119493,0.0,-0.014999986,0.0,0.0,0.0,0.0,0.0,0.0,0.0,0.0,0.0,0.0,-0.002,0.012,0.009000001,-0.4284607,0.0,0.0,0.0,0.0,1.3000001,0.0,0.0,0.0,0.0,0.0,inf,inf,inf,inf,1,1,1,1,0,0,0,0,0,0,1,1,0,0,0
130192000,0,0,37.413534,-121.99656100000001,-0.011119493,0.0,-0.014999986,0.0,0.0,0.0,0.0,0.0,0.0,0.0,0.0,0.0,0.0,0.0,-0.003,-0.002,-0.42846093,0.0,0.0,0.0,0.0,1.3000001,0.0,0.0,0.0,0.0,0.0,inf,inf,inf,inf,1,1,1,1,0,0,0,0,0,0,1,1,0,0,0
130212000,0,0,37.413534,-121.99656100000001,-0.011119493,0.0,-0.014999986,0.0,0.0,0.0,0.0,0.0,0.0,0.0,0.0,0.0,0.0,0.043,-0.11400001,-0.014,-0.428461,0.0,0.0,0.0,0.0,1.3000001,0.0,0.0,0.0,0.0,0.0,inf,inf,inf,inf,1,1,1,1,0,0,0,0,0,0,1,1,0,0,0
130232000,0,0,37.413534,-121.99656100000001,-0.011119493,0.0,-0.014999986,0.0,0.0,0.0,0.0,0.0,0.0,0.0,0.0,0.0,0.0,0.020000001,-0.054,-0.026,-0.4284575,0.0,0.0,0.0,0.0,1.3000001,0.0,0.0,0.0,0.0,0.0,inf,inf,inf,inf,1,1,1,1,0,0,0,0,0,0,1,1,0,0,0
130252000,0,0,37.413534,-121.99656100000001,-0.011119493,0.0,-0.014999986,0.0,0.0,0.0,0.0,0.0,0.0,0.0,0.0,0.0,0.0,0.002,-0.0050000004,-0.003,-0.4284517,0.0,0.0,0.0,0.0,1.3000001,0.0,0.0,0.0,0.0,0.0,inf,inf,inf,inf,1,1,1,1,0,0,0,0,0,0,1,1,0,0,0
130272000,0,0,37.413534,-121.99656100000001,-0.011119493,0.0,-0.014999986,0.0,0.0,0.0,0.0,0.0,0.0,0.0,0.0,0.0,0.0,0.002,0.001,0.001,-0.42845184,0.0,0.0,0.0,0.0,1.3000001,0.0,0.0,0.0,0.0,0.0,inf,inf,inf,inf,1,1,1,1,0,0,0,0,0,0,1,1,0,0,0
130292000,0,0,37.413534,-121.99656100000001,-0.011119493,0.0,-0.014999986,0.0,0.0,0.0,0.0,0.0,0.0,0.0,0.0,0.0,0.0,-0.001,0.0,-0.002,-0.42845201,0.0,0.0,0.0,0.0,1.3000001,0.0,0.0,0.0,0.0,0.0,inf,inf,inf,inf,1,1,1,1,0,0,0,0,0,0,1,1,0,0,0
130312000,0,0,37.413534,-121.99656100000001,-0.011119493,0.0,-0.014999986,0.0,0.0,0.0,0.0,0.0,0.0,0.0,0.0,0.0,0.0,0.0,0.0,0.0,-0.4284523,0.0,0.0,0.0,0.0,1.3000001,0.0,0.0,0.0,0.0,0.0,inf,inf,inf,inf,1,1,1,1,0,0,0,0,0,0,1,1,0,0,0
130332000,0,0,37.413534,-121.99656100000001,-0.011119493,0.0,-0.014999986,0.0,0.0,0.0,0.0,0.0,0.0,0.0,0.0,0.0,0.0,0.0,0.0,0.0,-0.42845267,0.0,0.0,0.0,0.0,1.3000001,0.0,0.0,0.0,0.0,0.0,inf,inf,inf,inf,1,1,1,1,0,0,0,0,0,0,1,1,0,0,0
130352000,0,0,37.413534,-121.99656100000001,-0.011119493,0.0,-0.014999986,0.0,0.0,0.0,0.0,0.0,0.0,0.0,0.0,0.0,0.0,0.0,0.0,0.0,-0.4284531,0.0,0.0,0.0,0.0,1.3000001,0.0,0.0,0.0,0.0,0.0,inf,inf,inf,inf,1,1,1,1,0,0,0,0,0,0,1,1,0,0,0
130372000,0,0,37.413534,-121.99656100000001,-0.011119493,0.0,-0.014999986,0.0,0.0,0.0,0.0,0.0,0.0,0.0,0.0,0.0,0.0,0.0,0.0,0.0,-0.42845327,0.0,0.0,0.0,0.0,1.3000001,0.0,0.0,0.0,0.0,0.0,inf,inf,inf,inf,1,1,1,1,0,0,0,0,0,0,1,1,0,0,0
130392000,0,0,37.413534,-121.99656100000001,-0.011119493,0.0,-0.014999986,0.0,0.0,0.0,0.0,0.0,0.0,0.0,0.0,0.0,0.0,-0.004,0.007,-0.004,-0.42845348,0.0,0.0,0.0,0.0,1.3000001,0.0,0.0,0.0,0.0,0.0,inf,inf,inf,inf,1,1,1,1,0,0,0,0,0,0,1,1,0,0,0
130412000,0,0,37.413534,-121.99656100000001,-0.011119493,0.0,-0.014999986,0.0,0.0,0.0,0.0,0.0,0.0,0.0,0.0,0.0,0.0,0.004,-0.009000001,0.0,-0.42845383,0.0,0.0,0.0,0.0,1.3000001,0.0,0.0,0.0,0.0,0.0,inf,inf,inf,inf,1,1,1,1,0,0,0,0,0,0,1,1,0,0,0
130432000,0,0,37.413534,-121.99656100000001,-0.011119493,0.0,-0.014999986,0.0,0.0,0.0,0.0,0.0,0.0,0.0,0.0,0.0,0.0,0.004,-0.015000001,-0.0050000004,-0.42845356,0.0,0.0,0.0,0.0,1.3000001,0.0,0.0,0.0,0.0,0.0,inf,inf,inf,inf,1,1,1,1,0,0,0,0,0,0,1,1,0,0,0
130452000,0,0,37.413534,-121.99656100000001,-0.011119493,0.0,-0.014999986,0.0,0.0,0.0,0.0,0.0,0.0,0.0,0.0,0.0,0.0,0.002,0.014,0.0,-0.42845318,0.0,0.0,0.0,0.0,1.3000001,0.0,0.0,0.0,0.0,0.0,inf,inf,inf,inf,1,1,1,1,0,0,0,0,0,0,1,1,0,0,0
130472000,0,0,37.413534,-121.99656100000001,-0.011119493,0.0,-0.014999986,0.0,0.0,0.0,0.0,0.0,0.0,0.0,0.0,0.0,0.0,0.004,-0.013,-0.003,-0.42845318,0.0,0.0,0.0,0.0,1.3000001,0.0,0.0,0.0,0.0,0.0,inf,inf,inf,inf,1,1,1,1,0,0,0,0,0,0,1,1,0,0,0
130492000,0,0,37.413534,-121.99656100000001,-0.011119493,0.0,-0.014999986,0.0,0.0,0.0,0.0,0.0,0.0,0.0,0.0,0.0,0.0,0.0,0.0,0.0,-0.4284531,0.0,0.0,0.0,0.0,1.3000001,0.0,0.0,0.0,0.0,0.0,inf,inf,inf,inf,1,1,1,1,0,0,0,0,0,0,1,1,0,0,0
130512000,0,0,37.413534,-121.99656100000001,-0.011119493,0.0,-0.014999986,0.0,0.0,0.0,0.0,0.0,0.0,0.0,0.0,0.0,0.0,0.003,-0.009000001,-0.001,-0.42845324,0.0,0.0,0.0,0.0,1.3000001,0.0,0.0,0.0,0.0,0.0,inf,inf,inf,inf,1,1,1,1,0,0,0,0,0,0,1,1,0,0,0
130532000,0,0,37.413534,-121.99656100000001,-0.011119493,0.0,-0.014999986,0.0,0.0,0.0,0.0,0.0,0.0,0.0,0.0,0.0,0.0,0.002,0.011000001,0.0,-0.42845303,0.0,0.0,0.0,0.0,1.3000001,0.0,0.0,0.0,0.0,0.0,inf,inf,inf,inf,1,1,1,1,0,0,0,0,0,0,1,1,0,0,0
130552000,0,0,37.413534,-121.99656100000001,-0.011119493,0.0,-0.014999986,0.0,0.0,0.0,0.0,0.0,0.0,0.0,0.0,0.0,0.0,0.004,-0.014,-0.003,-0.428453,0.0,0.0,0.0,0.0,1.3000001,0.0,0.0,0.0,0.0,0.0,inf,inf,inf,inf,1,1,1,1,0,0,0,0,0,0,1,1,0,0,0
130572000,0,0,37.413534,-121.99656100000001,-0.011119493,0.0,-0.014999986,0.0,0.0,0.0,0.0,0.0,0.0,0.0,0.0,0.0,0.0,0.0,0.0,0.0,-0.4284529,0.0,0.0,0.0,0.0,1.3000001,0.0,0.0,0.0,0.0,0.0,inf,inf,inf,inf,1,1,1,1,0,0,0,0,0,0,1,1,0,0,0
130592000,0,0,37.413534,-121.99656100000001,-0.011119493,0.0,-0.014999986,0.0,0.0,0.0,0.0,0.0,0.0,0.0,0.0,0.0,0.0,0.002,-0.007,0.0,-0.42845306,0.0,0.0,0.0,0.0,1.3000001,0.0,0.0,0.0,0.0,0.0,inf,inf,inf,inf,1,1,1,1,0,0,0,0,0,0,1,1,0,0,0
130612000,0,0,37.413534,-121.99656100000001,-0.011119493,0.0,-0.014999986,0.0,0.0,0.0,0.0,0.0,0.0,0.0,0.0,0.0,0.0,0.004,-0.012,-0.004,-0.42845264,0.0,0.0,0.0,0.0,1.3000001,0.0,0.0,0.0,0.0,0.0,inf,inf,inf,inf,1,1,1,1,0,0,0,0,0,0,1,1,0,0,0
130632000,0,0,37.413534,-121.99656100000001,-0.011119493,0.0,-0.014999986,0.0,0.0,0.0,0.0,0.0,0.0,0.0,0.0,0.0,0.0,0.0,0.0,0.001,-0.42845288,0.0,0.0,0.0,0.0,1.3000001,0.0,0.0,0.0,0.0,0.0,inf,inf,inf,inf,1,1,1,1,0,0,0,0,0,0,1,1,0,0,0
130652000,0,0,37.413534,-121.99656100000001,-0.011119493,0.0,-0.014999986,0.0,0.0,0.0,0.0,0.0,0.0,0.0,0.0,0.0,0.0,0.002,-0.007,0.0,-0.42845306,0.0,0.0,0.0,0.0,1.3000001,0.0,0.0,0.0,0.0,0.0,inf,inf,inf,inf,1,1,1,1,0,0,0,0,0,0,1,1,0,0,0
130672000,0,0,37.413534,-121.99656100000001,-0.011119493,0.0,-0.014999986,0.0,0.0,0.0,0.0,0.0,0.0,0.0,0.0,0.0,0.0,0.003,-0.010000001,-0.002,-0.42845285,0.0,0.0,0.0,0.0,1.3000001,0.0,0.0,0.0,0.0,0.0,inf,inf,inf,inf,1,1,1,1,0,0,0,0,0,0,1,1,0,0,0
130692000,0,0,37.413534,-121.99656100000001,-0.011119493,0.0,-0.014999986,0.0,0.0,0.0,0.0,0.0,0.0,0.0,0.0,0.0,0.0,0.002,0.015000001,0.0,-0.42845255,0.0,0.0,0.0,0.0,1.3000001,0.0,0.0,0.0,0.0,0.0,inf,inf,inf,inf,1,1,1,1,0,0,0,0,0,0,1,1,0,0,0
130712000,0,0,37.413534,-121.99656100000001,-0.011119493,0.0,-0.014999986,0.0,0.0,0.0,0.0,0.0,0.0,0.0,0.0,0.0,0.0,0.003,-0.007,0.0,-0.42845273,0.0,0.0,0.0,0.0,1.3000001,0.0,0.0,0.0,0.0,0.0,inf,inf,inf,inf,1,1,1,1,0,0,0,0,0,0,1,1,0,0,0
130732000,0,0,37.413534,-121.99656100000001,-0.011119493,0.0,-0.014999986,0.0,0.0,0.0,0.0,0.0,0.0,0.0,0.0,0.0,0.0,-0.014,0.048,0.030000001,-0.42845243,0.0,0.0,0.0,0.0,1.3000001,0.0,0.0,0.0,0.0,0.0,inf,inf,inf,inf,1,1,1,1,0,0,0,0,0,0,1,1,0,0,0
130752000,0,0,37.413534,-121.99656100000001,-0.011119493,0.0,-0.014999986,0.0,0.0,0.0,0.0,0.0,0.0,0.0,0.0,0.0,0.0,0.003,-0.008,0.0,-0.42845255,0.0,0.0,0.0,0.0,1.3000001,0.0,0.0,0.0,0.0,0.0,inf,inf,inf,inf,1,1,1,1,0,0,0,0,0,0,1,1,0,0,0
130772000,0,0,37.413534,-121.99656100000001,-0.011119493,0.0,-0.014999986,0.0,0.0,0.0,0.0,0.0,0.0,0.0,0.0,0.0,0.0,-0.016,0.053000003,0.032,-0.42845225,0.0,0.0,0.0,0.0,1.3000001,0.0,0.0,0.0,0.0,0.0,inf,inf,inf,inf,1,1,1,1,0,0,0,0,0,0,1,1,0,0,0
130792000,0,0,37.413534,-121.99656100000001,-0.011119493,0.0,-0.014999986,0.0,0.0,0.0,0.0,0.0,0.0,0.0,0.0,0.0,0.0,0.004,-0.012,0.0,-0.42845246,0.0,0.0,0.0,0.0,1.3000001,0.0,0.0,0.0,0.0,0.0,inf,inf,inf,inf,1,1,1,1,0,0,0,0,0,0,1,1,0,0,0
130812000,0,0,37.413534,-121.99656100000001,-0.011119493,0.0,-0.014999986,0.0,0.0,0.0,0.0,0.0,0.0,0.0,0.0,0.0,0.0,0.003,-0.011000001,-0.002,-0.42845222,0.0,0.0,0.0,0.0,1.3000001,0.0,0.0,0.0,0.0,0.0,inf,inf,inf,inf,1,1,1,1,0,0,0,0,0,0,1,1,0,0,0
130832000,0,0,37.413534,-121.99656100000001,-0.011119493,0.0,-0.014999986,0.0,0.0,0.0,0.0,0.0,0.0,0.0,0.0,0.0,0.0,-0.012,0.009000001,-0.018000001,-0.4284523,0.0,0.0,0.0,0.0,1.3000001,0.0,0.0,0.0,0.0,0.0,inf,inf,inf,inf,1,1,1,1,0,0,0,0,0,0,1,1,0,0,0
130852000,0,0,37.413534,-121.99656100000001,-0.011119493,0.0,-0.014999986,0.0,0.0,0.0,0.0,0.0,0.0,0.0,0.0,0.0,0.0,0.004,-0.012,-0.002,-0.42845213,0.0,0.0,0.0,0.0,1.3000001,0.0,0.0,0.0,0.0,0.0,inf,inf,inf,inf,1,1,1,1,0,0,0,0,0,0,1,1,0,0,0
130872000,0,0,37.413534,-121.99656100000001,-0.011119493,0.0,-0.014999986,0.0,0.0,0.0,0.0,0.0,0.0,0.0,0.0,0.0,0.0,0.004,-0.011000001,-0.002,-0.42845201,0.0,0.0,0.0,0.0,1.3000001,0.0,0.0,0.0,0.0,0.0,inf,inf,inf,inf,1,1,1,1,0,0,0,0,0,0,1,1,0,0,0
130892000,0,0,37.413534,-121.99656100000001,-0.011119493,0.0,-0.014999986,0.0,0.0,0.0,0.0,0.0,0.0,0.0,0.0,0.0,0.0,0.0,0.0,0.0,-0.428452,0.0,0.0,0.0,0.0,1.3000001,0.0,0.0,0.0,0.0,0.0,inf,inf,inf,inf,1,1,1,1,0,0,0,0,0,0,1,1,0,0,0
130912000,0,0,37.413534,-121.99656100000001,-0.011119493,0.0,-0.014999986,0.0,0.0,0.0,0.0,0.0,0.0,0.0,0.0,0.0,0.0,0.004,-0.011000001,-0.001,-0.42845207,0.0,0.0,0.0,0.0,1.3000001,0.0,0.0,0.0,0.0,0.0,inf,inf,inf,inf,1,1,1,1,0,0,0,0,0,0,1,1,0,0,0
130932000,0,0,37.413534,-121.99656100000001,-0.011119493,0.0,-0.014999986,0.0,0.0,0.0,0.0,0.0,0.0,0.0,0.0,0.0,0.0,-0.016,0.054,0.030000001,-0.42845175,0.0,0.0,0.0,0.0,1.3000001,0.0,0.0,0.0,0.0,0.0,inf,inf,inf,inf,1,1,1,1,0,0,0,0,0,0,1,1,0,0,0
130952000,0,0,37.413534,-121.99656100000001,-0.011119493,0.0,-0.014999986,0.0,0.0,0.0,0.0,0.0,0.0,0.0,0.0,0.0,0.0,0.002,-0.009000001,0.0,-0.42845201,0.0,0.0,0.0,0.0,1.3000001,0.0,0.0,0.0,0.0,0.0,inf,inf,inf,inf,1,1,1,1,0,0,0,0,0,0,1,1,0,0,0
130972000,0,0,37.413534,-121.99656100000001,-0.011119493,0.0,-0.014999986,0.0,0.0,0.0,0.0,0.0,0.0,0.0,0.0,0.0,0.0,0.003,-0.009000001,-0.001,-0.428452,0.0,0.0,0.0,0.0,1.3000001,0.0,0.0,0.0,0.0,0.0,inf,inf,inf,inf,1,1,1,1,0,0,0,0,0,0,1,1,0,0,0
130992000,0,0,37.413534,-121.99656100000001,-0.011119493,0.0,-0.014999986,0.0,0.0,0.0,0.0,0.0,0.0,0.0,0.0,0.0,0.0,-0.019000001,0.059000004,0.031000001,-0.42845157,0.0,0.0,0.0,0.0,1.3000001,0.0,0.0,0.0,0.0,0.0,inf,inf,inf,inf,1,1,1,1,0,0,0,0,0,0,1,1,0,0,0
131012000,0,0,37.413534,-121.99656100000001,-0.011119493,0.0,-0.014999986,0.0,0.0,0.0,0.0,0.0,0.0,0.0,0.0,0.0,0.0,0.002,-0.0050000004,0.0,-0.42845178,0.0,0.0,0.0,0.0,1.3000001,0.0,0.0,0.0,0.0,0.0,inf,inf,inf,inf,1,1,1,1,0,0,0,0,0,0,1,1,0,0,0
131032000,0,0,37.413534,-121.99656100000001,-0.011119493,0.0,-0.014999986,0.0,0.0,0.0,0.0,0.0,0.0,0.0,0.0,0.0,0.0,0.003,-0.011000001,-0.001,-0.42845154,0.0,0.0,0.0,0.0,1.3000001,0.0,0.0,0.0,0.0,0.0,inf,inf,inf,inf,1,1,1,1,0,0,0,0,0,0,1,1,0,0,0
131052000,0,0,37.413534,-121.99656100000001,-0.011119493,0.0,-0.014999986,0.0,0.0,0.0,0.0,0.0,0.0,0.0,0.0,0.0,0.0,0.001,0.001,0.002,-0.42845157,0.0,0.0,0.0,0.0,1.3000001,0.0,0.0,0.0,0.0,0.0,inf,inf,inf,inf,1,1,1,1,0,0,0,0,0,0,1,1,0,0,0
131072000,0,0,37.413534,-121.99656100000001,-0.011119493,0.0,-0.014999986,0.0,0.0,0.0,0.0,0.0,0.0,0.0,0.0,0.0,0.0,0.002,-0.006,0.0,-0.42845175,0.0,0.0,0.0,0.0,1.3000001,0.0,0.0,0.0,0.0,0.0,inf,inf,inf,inf,1,1,1,1,0,0,0,0,0,0,1,1,0,0,0
131092000,0,0,37.413534,-121.99656100000001,-0.011119493,0.0,-0.014999986,0.0,0.0,0.0,0.0,0.0,0.0,0.0,0.0,0.0,0.0,0.003,-0.009000001,-0.001,-0.4284516,0.0,0.0,0.0,0.0,1.3000001,0.0,0.0,0.0,0.0,0.0,inf,inf,inf,inf,1,1,1,1,0,0,0,0,0,0,1,1,0,0,0
131112000,0,0,37.413534,-121.99656100000001,-0.011119493,0.0,-0.014999986,0.0,0.0,0.0,0.0,0.0,0.0,0.0,0.0,0.0,0.0,-0.006,0.020000001,-0.021000002,-0.4284513,0.0,0.0,0.0,0.0,1.3000001,0.0,0.0,0.0,0.0,0.0,inf,inf,inf,inf,1,1,1,1,0,0,0,0,0,0,1,1,0,0,0
131132000,0,0,37.413534,-121.99656100000001,-0.011119493,0.0,-0.014999986,0.0,0.0,0.0,0.0,0.0,0.0,0.0,0.0,0.0,0.0,-0.013,0.044000003,0.026,-0.42845115,0.0,0.0,0.0,0.0,1.3000001,0.0,0.0,0.0,0.0,0.0,inf,inf,inf,inf,1,1,1,1,0,0,0,0,0,0,1,1,0,0,0
131152000,0,0,37.413534,-121.99656100000001,-0.011119493,0.0,-0.014999986,0.0,0.0,0.0,0.0,0.0,0.0,0.0,0.0,0.0,0.0,0.004,-0.013,-0.001,-0.42845118,0.0,0.0,0.0,0.0,1.3000001,0.0,0.0,0.0,0.0,0.0,inf,inf,inf,inf,1,1,1,1,0,0,0,0,0,0,1,1,0,0,0
131172000,0,0,37.413534,-121.99656100000001,-0.011119493,0.0,-0.014999986,0.0,0.0,0.0,0.0,0.0,0.0,0.0,0.0,0.0,0.0,0.007,-0.021000002,0.0,-0.42845115,0.0,0.0,0.0,0.0,1.3000001,0.0,0.0,0.0,0.0,0.0,inf,inf,inf,inf,1,1,1,1,0,0,0,0,0,0,1,1,0,0,0
131192000,0,0,37.413534,-121.99656100000001,-0.011119493,0.0,-0.014999986,0.0,0.0,0.0,0.0,0.0,0.0,0.0,0.0,0.0,0.0,-0.007,0.018000001,-0.021000002,-0.4284511,0.0,0.0,0.0,0.0,1.3000001,0.0,0.0,0.0,0.0,0.0,inf,inf,inf,inf,1,1,1,1,0,0,0,0,0,0,1,1,0,0,0
131212000,0,0,37.413534,-121.99656100000001,-0.011119493,0.0,-0.014999986,0.0,0.0,0.0,0.0,0.0,0.0,0.0,0.0,0.0,0.0,-0.014,0.045,0.026,-0.42845088,0.0,0.0,0.0,0.0,1.3000001,0.0,0.0,0.0,0.0,0.0,inf,inf,inf,inf,1,1,1,1,0,0,0,0,0,0,1,1,0,0,0
131232000,0,0,37.413534,-121.99656100000001,-0.011119493,0.0,-0.014999986,0.0,0.0,0.0,0.0,0.0,0.0,0.0,0.0,0.0,0.0,0.004,-0.013,-0.001,-0.428451,0.0,0.0,0.0,0.0,1.3000001,0.0,0.0,0.0,0.0,0.0,inf,inf,inf,inf,1,1,1,1,0,0,0,0,0,0,1,1,0,0,0
131252000,0,0,37.413534,-121.99656100000001,-0.011119493,0.0,-0.014999986,0.0,0.0,0.0,0.0,0.0,0.0,0.0,0.0,0.0,0.0,0.007,-0.021000002,0.0,-0.42845094,0.0,0.0,0.0,0.0,1.3000001,0.0,0.0,0.0,0.0,0.0,inf,inf,inf,inf,1,1,1,1,0,0,0,0,0,0,1,1,0,0,0
131272000,0,0,37.413534,-121.99656100000001,-0.011119493,0.0,-0.014999986,0.0,0.0,0.0,0.0,0.0,0.0,0.0,0.0,0.0,0.0,-0.017,0.052,0.027,-0.4284507,0.0,0.0,0.0,0.0,1.3000001,0.0,0.0,0.0,0.0,0.0,inf,inf,inf,inf,1,1,1,1,0,0,0,0,0,0,1,1,0,0,0
131292000,0,0,37.413534,-121.99656100000001,-0.011119493,0.0,-0.014999986,0.0,0.0,0.0,0.0,0.0,0.0,0.0,0.0,0.0,0.0,0.001,-0.007,0.0,-0.428451,0.0,0.0,0.0,0.0,1.3000001,0.0,0.0,0.0,0.0,0.0,inf,inf,inf,inf,1,1,1,1,0,0,0,0,0,0,1,1,0,0,0
131312000,0,0,37.413534,-121.99656100000001,-0.011119493,0.0,-0.014999986,0.0,0.0,0.0,0.0,0.0,0.0,0.0,0.0,0.0,0.0,0.002,-0.0050000004,0.0,-0.4284512,0.0,0.0,0.0,0.0,1.3000001,0.0,0.0,0.0,0.0,0.0,inf,inf,inf,inf,1,1,1,1,0,0,0,0,0,0,1,1,0,0,0
131332000,0,0,37.413534,-121.99656100000001,-0.011119493,0.0,-0.014999986,0.0,0.0,0.0,0.0,0.0,0.0,0.0,0.0,0.0,0.0,0.002,-0.007,0.0,-0.42845112,0.0,0.0,0.0,0.0,1.3000001,0.0,0.0,0.0,0.0,0.0,inf,inf,inf,inf,1,1,1,1,0,0,0,0,0,0,1,1,0,0,0
131352000,0,0,37.413534,-121.99656100000001,-0.011119493,0.0,-0.014999986,0.0,0.0,0.0,0.0,0.0,0.0,0.0,0.0,0.0,0.0,0.003,-0.009000001,0.0,-0.4284506,0.0,0.0,0.0,0.0,1.3000001,0.0,0.0,0.0,0.0,0.0,inf,inf,inf,inf,1,1,1,1,0,0,0,0,0,0,1,1,0,0,0
131372000,0,0,37.413534,-121.99656100000001,-0.011119493,0.0,-0.014999986,0.0,0.0,0.0,0.0,0.0,0.0,0.0,0.0,0.0,0.0,0.004,-0.012,0.0,-0.4284506,0.0,0.0,0.0,0.0,1.3000001,0.0,0.0,0.0,0.0,0.0,inf,inf,inf,inf,1,1,1,1,0,0,0,0,0,0,1,1,0,0,0
131392000,0,0,37.413534,-121.99656100000001,-0.011119493,0.0,-0.014999986,0.0,0.0,0.0,0.0,0.0,0.0,0.0,0.0,0.0,0.0,0.006,-0.020000001,0.0,-0.42845058,0.0,0.0,0.0,0.0,1.3000001,0.0,0.0,0.0,0.0,0.0,inf,inf,inf,inf,1,1,1,1,0,0,0,0,0,0,1,1,0,0,0
131412000,0,0,37.413534,-121.99656100000001,-0.011119493,0.0,-0.014999986,0.0,0.0,0.0,0.0,0.0,0.0,0.0,0.0,0.0,0.0,0.004,-0.012,0.0,-0.42845032,0.0,0.0,0.0,0.0,1.3000001,0.0,0.0,0.0,0.0,0.0,inf,inf,inf,inf,1,1,1,1,0,0,0,0,0,0,1,1,0,0,0
131432000,0,0,37.413534,-121.99656100000001,-0.011119493,0.0,-0.014999986,0.0,0.0,0.0,0.0,0.0,0.0,0.0,0.0,0.0,0.0,-0.020000001,0.020000001,-0.025,-0.4284506,0.0,0.0,0.0,0.0,1.3000001,0.0,0.0,0.0,0.0,0.0,inf,inf,inf,inf,1,1,1,1,0,0,0,0,0,0,1,1,0,0,0
131452000,0,0,37.413534,-121.99656100000001,-0.011119493,0.0,-0.014999986,0.0,0.0,0.0,0.0,0.0,0.0,0.0,0.0,0.0,0.0,0.0,0.0,0.0,-0.428451,0.0,0.0,0.0,0.0,1.3000001,0.0,0.0,0.0,0.0,0.0,inf,inf,inf,inf,1,1,1,1,0,0,0,0,0,0,1,1,0,0,0
131472000,0,0,37.413534,-121.99656100000001,-0.011119493,0.0,-0.014999986,0.0,0.0,0.0,0.0,0.0,0.0,0.0,0.0,0.0,0.0,0.001,-0.003,0.0,-0.4284513,0.0,0.0,0.0,0.0,1.3000001,0.0,0.0,0.0,0.0,0.0,inf,inf,inf,inf,1,1,1,1,0,0,0,0,0,0,1,1,0,0,0
131492000,0,0,37.413534,-121.99656100000001,-0.011119493,0.0,-0.014999986,0.0,0.0,0.0,0.0,0.0,0.0,0.0,0.0,0.0,0.0,0.001,-0.0050000004,0.0,-0.42845145,0.0,0.0,0.0,0.0,1.3000001,0.0,0.0,0.0,0.0,0.0,inf,inf,inf,inf,1,1,1,1,0,0,0,0,0,0,1,1,0,0,0
131512000,0,0,37.413534,-121.99656100000001,-0.011119493,0.0,-0.014999986,0.0,0.0,0.0,0.0,0.0,0.0,0.0,0.0,0.0,0.0,0.002,-0.006,0.0,-0.42845136,0.0,0.0,0.0,0.0,1.3000001,0.0,0.0,0.0,0.0,0.0,inf,inf,inf,inf,1,1,1,1,0,0,0,0,0,0,1,1,0,0,0
131532000,0,0,37.413534,-121.99656100000001,-0.011119493,0.0,-0.014999986,0.0,0.0,0.0,0.0,0.0,0.0,0.0,0.0,0.0,0.0,0.003,-0.008,0.0,-0.4284509,0.0,0.0,0.0,0.0,1.3000001,0.0,0.0,0.0,0.0,0.0,inf,inf,inf,inf,1,1,1,1,0,0,0,0,0,0,1,1,0,0,0
131552000,0,0,37.413534,-121.99656100000001,-0.011119493,0.0,-0.014999986,0.0,0.0,0.0,0.0,0.0,0.0,0.0,0.0,0.0,0.0,0.003,-0.009000001,0.0,-0.42845008,0.0,0.0,0.0,0.0,1.3000001,0.0,0.0,0.0,0.0,0.0,inf,inf,inf,inf,1,1,1,1,0,0,0,0,0,0,1,1,0,0,0
131572000,0,0,37.413534,-121.99656100000001,-0.011119493,0.0,-0.014999986,0.0,0.0,0.0,0.0,0.0,0.0,0.0,0.0,0.0,0.0,0.0,0.0050000004,-0.001,-0.42845014,0.0,0.0,0.0,0.0,1.3000001,0.0,0.0,0.0,0.0,0.0,inf,inf,inf,inf,1,1,1,1,0,0,0,0,0,0,1,1,0,0,0
131592000,0,0,37.413534,-121.99656100000001,-0.011119493,0.0,-0.014999986,0.0,0.0,0.0,0.0,0.0,0.0,0.0,0.0,0.0,0.0,-0.0050000004,0.015000001,0.0,-0.42845085,0.0,0.0,0.0,0.0,1.3000001,0.0,0.0,0.0,0.0,0.0,inf,inf,inf,inf,1,1,1,1,0,0,0,0,0,0,1,1,0,0,0
131612000,0,0,37.413534,-121.99656100000001,-0.011119493,0.0,-0.014999986,0.0,0.0,0.0,0.0,0.0,0.0,0.0,0.0,0.0,0.0,-0.003,0.010000001,0.0,-0.42845207,0.0,0.0,0.0,0.0,1.3000001,0.0,0.0,0.0,0.0,0.0,inf,inf,inf,inf,1,1,1,1,0,0,0,0,0,0,1,1,0,0,0
131632000,0,0,37.413534,-121.99656100000001,-0.011119493,0.0,-0.014999986,0.0,0.0,0.0,0.0,0.0,0.0,0.0,0.0,0.0,0.0,-0.003,0.008,0.0,-0.42845374,0.0,0.0,0.0,0.0,1.3000001,0.0,0.0,0.0,0.0,0.0,inf,inf,inf,inf,1,1,1,1,0,0,0,0,0,0,1,1,0,0,0
131652000,0,0,37.413534,-121.99656100000001,-0.011119493,0.0,-0.014999986,0.0,0.0,0.0,0.0,0.0,0.0,0.0,0.0,0.0,0.0,-0.002,0.007,0.0,-0.4284557,0.0,0.0,0.0,0.0,1.3000001,0.0,0.0,0.0,0.0,0.0,inf,inf,inf,inf,1,1,1,1,0,0,0,0,0,0,1,1,0,0,0
131672000,0,0,37.413534,-121.99656100000001,-0.011119493,0.0,-0.014999986,0.0,0.0,0.0,0.0,0.0,0.0,0.0,0.0,0.0,0.0,0.068,-0.179,-0.007,-0.42845798,0.0,0.0,0.0,0.0,1.3000001,0.0,0.0,0.0,0.0,0.0,inf,inf,inf,inf,1,1,1,1,0,0,0,0,0,0,1,1,0,0,0
131692000,0,0,37.413534,-121.99656100000001,-0.011119493,0.0,-0.014999986,0.0,0.0,0.0,0.0,0.0,0.0,0.0,0.0,0.0,0.0,0.001,-0.007,-0.016,-0.42845476,0.0,0.0,0.0,0.0,1.3000001,0.0,0.0,0.0,0.0,0.0,inf,inf,inf,inf,1,1,1,1,0,0,0,0,0,0,1,1,0,0,0
